{
	"staList": [{
		"STAPILLZLCOUNT": 0,
		"STAPILLJLDXCOUNT": 10,
		"ID": "d0ee01f1-1c05-43d7-ad6c-03e674a9dcd9",
		"CODE": "3702140255",
		"NAME": "青岛城阳街道办充电站",
		"STATYPE": null,
		"STATYPENAME": null,
		"VISIBLE": "1",
		"STAOPSTATE": "3",
		"STAOPSTATENAME": "运营中",
		"WGS84LNG": 120.387901,
		"WGS84LAT": 36.307922,
		"STAADDR": "山东省青岛市城阳区^平阳路451号",
		"CDCS": 0
	}, {
		"STAPILLZLCOUNT": 2,
		"STAPILLJLDXCOUNT": 4,
		"ID": "23eae1e9-5ae8-4770-b363-b22dae470968",
		"CODE": "3702140393",
		"NAME": "青岛博丰大酒店充电站",
		"STATYPE": null,
		"STATYPENAME": null,
		"VISIBLE": "1",
		"STAOPSTATE": "3",
		"STAOPSTATENAME": "运营中",
		"WGS84LNG": 120.418212,
		"WGS84LAT": 36.256895,
		"STAADDR": "山东省青岛市城阳区^赵红路178号",
		"CDCS": 0
	}, {
		"STAPILLZLCOUNT": 2,
		"STAPILLJLDXCOUNT": 8,
		"ID": "e032ed58-e065-48b9-b4e0-42acc48b1707",
		"CODE": "3702020273",
		"NAME": "青岛财政局充电站",
		"STATYPE": null,
		"STATYPENAME": null,
		"VISIBLE": "1",
		"STAOPSTATE": "3",
		"STAOPSTATENAME": "运营中",
		"WGS84LNG": 120.410876,
		"WGS84LAT": 36.086575,
		"STAADDR": "山东省青岛市市南区^宁夏路208号",
		"CDCS": 0
	}, {
		"STAPILLZLCOUNT": 2,
		"STAPILLJLDXCOUNT": 8,
		"ID": "00077d91-dc04-4007-a4c2-23818f47142b",
		"CODE": "3702110100",
		"NAME": "青岛保税区管委南侧充电站",
		"STATYPE": null,
		"STATYPENAME": null,
		"VISIBLE": "1",
		"STAOPSTATE": "3",
		"STAOPSTATENAME": "运营中",
		"WGS84LNG": 120.184703,
		"WGS84LAT": 35.990089,
		"STAADDR": "山东省青岛市黄岛区上海路^北京路57号",
		"CDCS": 0
	}, {
		"STAPILLZLCOUNT": 10,
		"STAPILLJLDXCOUNT": 0,
		"ID": "07b970c9-92bf-483c-a281-0a6204462324",
		"CODE": "3702110049",
		"NAME": "青岛开发区巴士柳花泊充电站",
		"STATYPE": null,
		"STATYPENAME": null,
		"VISIBLE": "1",
		"STAOPSTATE": "3",
		"STAOPSTATENAME": "运营中",
		"WGS84LNG": 120.089959,
		"WGS84LAT": 36.021258,
		"STAADDR": "山东省青岛市黄岛区^黄河西路",
		"CDCS": 0
	}, {
		"STAPILLZLCOUNT": 0,
		"STAPILLJLDXCOUNT": 8,
		"ID": "184055bc-a6ae-4051-bfa2-90fc7782ded8",
		"CODE": "3702140294",
		"NAME": "青岛中科研发城充电站",
		"STATYPE": null,
		"STATYPENAME": null,
		"VISIBLE": "1",
		"STAOPSTATE": "3",
		"STAOPSTATENAME": "运营中",
		"WGS84LNG": 120.288039,
		"WGS84LAT": 36.279764,
		"STAADDR": "山东省青岛市城阳区汇智桥路^汇智桥路与河东路交叉口东南角",
		"CDCS": 0
	}, {
		"STAPILLZLCOUNT": 3,
		"STAPILLJLDXCOUNT": 0,
		"ID": "410890d9-efe7-498e-b74f-a2a1476f9aa9",
		"CODE": "3702120364",
		"NAME": "青岛北宅卫生院充电站",
		"STATYPE": null,
		"STATYPENAME": null,
		"VISIBLE": "1",
		"STAOPSTATE": "3",
		"STAOPSTATENAME": "运营中",
		"WGS84LNG": 120.527336,
		"WGS84LAT": 36.233174,
		"STAADDR": "山东省青岛市崂山区^396省道西100米",
		"CDCS": 0
	}, {
		"STAPILLZLCOUNT": 10,
		"STAPILLJLDXCOUNT": 4,
		"ID": "431bfa22-38c3-4a54-a1d5-37f724f78dd4",
		"CODE": "3702140006",
		"NAME": "青岛城南片区社区中心充电站",
		"STATYPE": null,
		"STATYPENAME": null,
		"VISIBLE": "1",
		"STAOPSTATE": "3",
		"STAOPSTATENAME": "运营中",
		"WGS84LNG": 120.418737,
		"WGS84LAT": 36.298558,
		"STAADDR": "山东省青岛市城阳区S202(靖城路)^靖城路",
		"CDCS": 0
	}, {
		"STAPILLZLCOUNT": 1,
		"STAPILLJLDXCOUNT": 4,
		"ID": "5e876d19-0fbf-4e74-8ce7-ea97c54af5d5",
		"CODE": "3702020255",
		"NAME": "青岛市地税局充电站",
		"STATYPE": null,
		"STATYPENAME": null,
		"VISIBLE": "1",
		"STAOPSTATE": "3",
		"STAOPSTATENAME": "运营中",
		"WGS84LNG": 120.386124,
		"WGS84LAT": 36.066951,
		"STAADDR": "山东省青岛市市南区^东海西路18号",
		"CDCS": 0
	}, {
		"STAPILLZLCOUNT": 4,
		"STAPILLJLDXCOUNT": 6,
		"ID": "6ba4262d-a4df-484a-9cfd-45c4051e59e2",
		"CODE": "3702120253",
		"NAME": "青岛海尔集团创牌1号充电站",
		"STATYPE": null,
		"STATYPENAME": null,
		"VISIBLE": "1",
		"STAOPSTATE": "3",
		"STAOPSTATENAME": "运营中",
		"WGS84LNG": 120.424205,
		"WGS84LAT": 36.133845,
		"STAADDR": "山东省青岛市崂山区^海尔路1号",
		"CDCS": 0
	}, {
		"STAPILLZLCOUNT": 1,
		"STAPILLJLDXCOUNT": 6,
		"ID": "9369aee3-e1e7-439d-a377-9ee3caa877ce",
		"CODE": "3702140279",
		"NAME": "青岛福根美林充电站",
		"STATYPE": null,
		"STATYPENAME": null,
		"VISIBLE": "1",
		"STAOPSTATE": "3",
		"STAOPSTATENAME": "运营中",
		"WGS84LNG": 120.420595,
		"WGS84LAT": 36.293848,
		"STAADDR": "山东省青岛市城阳区S202(靖城路)^S202(靖城路)",
		"CDCS": 0
	}, {
		"STAPILLZLCOUNT": 2,
		"STAPILLJLDXCOUNT": 19,
		"ID": "96ca11b3-fe5e-4d28-bf5c-633cb4f9d2dc",
		"CODE": "3702120001",
		"NAME": "青岛特锐德崂山工业园1号充电站",
		"STATYPE": null,
		"STATYPENAME": null,
		"VISIBLE": "1",
		"STAOPSTATE": "3",
		"STAOPSTATENAME": "运营中",
		"WGS84LNG": 120.511569,
		"WGS84LAT": 36.178509,
		"STAADDR": "山东省青岛市崂山区^松岭路336号",
		"CDCS": 0
	}, {
		"STAPILLZLCOUNT": 0,
		"STAPILLJLDXCOUNT": 10,
		"ID": "a595b212-8336-4ea4-81c7-78d913764818",
		"CODE": "3702820011",
		"NAME": "青岛即墨蓝色硅谷管委地下充电站",
		"STATYPE": null,
		"STATYPENAME": null,
		"VISIBLE": "1",
		"STAOPSTATE": "3",
		"STAOPSTATENAME": "运营中",
		"WGS84LNG": 120.682868,
		"WGS84LAT": 36.353682,
		"STAADDR": "山东省青岛市即墨市^蓝色硅谷科技创新园一期",
		"CDCS": 0
	}, {
		"STAPILLZLCOUNT": 4,
		"STAPILLJLDXCOUNT": 5,
		"ID": "b180de16-d99f-4fb4-a8a2-015d840b18cd",
		"CODE": "3702030051",
		"NAME": "青岛四方利群充电站",
		"STATYPE": null,
		"STATYPENAME": null,
		"VISIBLE": "1",
		"STAOPSTATE": "3",
		"STAOPSTATENAME": "运营中",
		"WGS84LNG": 120.367998,
		"WGS84LAT": 36.110676,
		"STAADDR": "山东省青岛市市北区^重庆南路1号",
		"CDCS": 0
	}, {
		"STAPILLZLCOUNT": 8,
		"STAPILLJLDXCOUNT": 0,
		"ID": "ca38f64c-8d26-4cdc-adce-f786e58db820",
		"CODE": "3702110039",
		"NAME": "青岛开发区巴士隧道枢纽充电站",
		"STATYPE": null,
		"STATYPENAME": null,
		"VISIBLE": "1",
		"STAOPSTATE": "3",
		"STAOPSTATENAME": "运营中",
		"WGS84LNG": 120.297300,
		"WGS84LAT": 35.993200,
		"STAADDR": "山东省青岛市黄岛区^南辅路薛家岛隧道公交枢纽站",
		"CDCS": 0
	}, {
		"STAPILLZLCOUNT": 0,
		"STAPILLJLDXCOUNT": 6,
		"ID": "e2807911-f763-4ddb-ab99-4933de7072d3",
		"CODE": "3702120250",
		"NAME": "青岛崂山消防大队充电站",
		"STATYPE": null,
		"STATYPENAME": null,
		"VISIBLE": "1",
		"STAOPSTATE": "3",
		"STAOPSTATENAME": "运营中",
		"WGS84LNG": 120.465526,
		"WGS84LAT": 36.111611,
		"STAADDR": "山东省青岛市崂山区^青岛市银川东路15号",
		"CDCS": 0
	}, {
		"STAPILLZLCOUNT": 2,
		"STAPILLJLDXCOUNT": 7,
		"ID": "e2811318-c3c8-461b-b03e-cb23a2119506",
		"CODE": "3702030108",
		"NAME": "青岛居然之家B馆充电站",
		"STATYPE": null,
		"STATYPENAME": null,
		"VISIBLE": "1",
		"STAOPSTATE": "3",
		"STAOPSTATENAME": "运营中",
		"WGS84LNG": 120.407585,
		"WGS84LAT": 36.122937,
		"STAADDR": "山东省青岛市市北区同德路1^黑龙江南路186-1号",
		"CDCS": 0
	}, {
		"STAPILLZLCOUNT": 4,
		"STAPILLJLDXCOUNT": 2,
		"ID": "1bed247c-a158-4b8f-ba7e-eaf8b3198477",
		"CODE": "3702130244",
		"NAME": "青岛维客国际商务中心充电站",
		"STATYPE": null,
		"STATYPENAME": null,
		"VISIBLE": "1",
		"STAOPSTATE": "3",
		"STAOPSTATENAME": "运营中",
		"WGS84LNG": 120.424434,
		"WGS84LAT": 36.167625,
		"STAADDR": "山东省青岛市李沧区^京口路84号",
		"CDCS": 0
	}, {
		"STAPILLZLCOUNT": 2,
		"STAPILLJLDXCOUNT": 0,
		"ID": "625ce548-15db-430c-a557-952eec75237a",
		"CODE": "3702030040",
		"NAME": "青岛金瑞汽修充电站",
		"STATYPE": null,
		"STATYPENAME": null,
		"VISIBLE": "1",
		"STAOPSTATE": "3",
		"STAOPSTATENAME": "运营中",
		"WGS84LNG": 120.422615,
		"WGS84LAT": 36.106319,
		"STAADDR": "山东省青岛市市北区^劲松三路126号",
		"CDCS": 0
	}, {
		"STAPILLZLCOUNT": 0,
		"STAPILLJLDXCOUNT": 2,
		"ID": "73a28d8b-cd25-49b8-a72c-38262ad87816",
		"CODE": "3702130172",
		"NAME": "青岛永清路社区充电站",
		"STATYPE": null,
		"STATYPENAME": null,
		"VISIBLE": "1",
		"STAOPSTATE": "3",
		"STAOPSTATENAME": "运营中",
		"WGS84LNG": 120.409609,
		"WGS84LAT": 36.177716,
		"STAADDR": "山东省青岛市李沧区^振华路15号",
		"CDCS": 0
	}, {
		"STAPILLZLCOUNT": 0,
		"STAPILLJLDXCOUNT": 2,
		"ID": "4aa8cbfa-ce8e-4ff8-ac9e-83b0403ca8a4",
		"CODE": "3702120340",
		"NAME": "青岛中石化研究院充电站",
		"STATYPE": null,
		"STATYPENAME": null,
		"VISIBLE": "1",
		"STAOPSTATE": "3",
		"STAOPSTATENAME": "运营中",
		"WGS84LNG": 120.504052,
		"WGS84LAT": 36.176080,
		"STAADDR": "山东省青岛市崂山区^北宅街道沟崖岭西",
		"CDCS": 0
	}, {
		"STAPILLZLCOUNT": 4,
		"STAPILLJLDXCOUNT": 23,
		"ID": "5997e60d-fbf3-4061-a0ac-713482bb6ec4",
		"CODE": "3702110013",
		"NAME": "青岛明月海洋科技园充电站",
		"STATYPE": null,
		"STATYPENAME": null,
		"VISIBLE": "1",
		"STAOPSTATE": "3",
		"STAOPSTATENAME": "运营中",
		"WGS84LNG": 119.960756,
		"WGS84LAT": 35.871486,
		"STAADDR": "山东省青岛市黄岛区^胶南明月路777号",
		"CDCS": 0
	}, {
		"STAPILLZLCOUNT": 4,
		"STAPILLJLDXCOUNT": 0,
		"ID": "f71719b3-fbbd-4770-8dc2-4aae742568c9",
		"CODE": "3702110215",
		"NAME": "青岛五菱专用汽车充电站",
		"STATYPE": null,
		"STATYPENAME": null,
		"VISIBLE": "1",
		"STAOPSTATE": "3",
		"STAOPSTATENAME": "运营中",
		"WGS84LNG": 120.161568,
		"WGS84LAT": 35.995423,
		"STAADDR": "山东省青岛市黄岛区^齐长城路509",
		"CDCS": 0
	}, {
		"STAPILLZLCOUNT": 0,
		"STAPILLJLDXCOUNT": 4,
		"ID": "d35b037f-91bd-4f2f-b81e-6cabef799b95",
		"CODE": "3702110095",
		"NAME": "青岛张家楼镇政府充电站",
		"STATYPE": null,
		"STATYPENAME": null,
		"VISIBLE": "1",
		"STAOPSTATE": "3",
		"STAOPSTATENAME": "运营中",
		"WGS84LNG": 119.922799,
		"WGS84LAT": 35.803046,
		"STAADDR": "山东省青岛市黄岛区^石楼街7号",
		"CDCS": 0
	}, {
		"STAPILLZLCOUNT": 0,
		"STAPILLJLDXCOUNT": 10,
		"ID": "45e181c6-b745-48fb-b87c-36a78db3b3ad",
		"CODE": "3702110012",
		"NAME": "青岛海藻生物科技中心充电站",
		"STATYPE": null,
		"STATYPENAME": null,
		"VISIBLE": "1",
		"STAOPSTATE": "3",
		"STAOPSTATENAME": "运营中",
		"WGS84LNG": 120.011104,
		"WGS84LAT": 35.818304,
		"STAADDR": "山东省青岛市黄岛区^胶南大学园西一路",
		"CDCS": 0
	}, {
		"STAPILLZLCOUNT": 2,
		"STAPILLJLDXCOUNT": 8,
		"ID": "1ae56418-3ef3-4ab1-8ce1-e1a0ffd3ff21",
		"CODE": "3702110205",
		"NAME": "青岛观海苑充电站",
		"STATYPE": null,
		"STATYPENAME": null,
		"VISIBLE": "1",
		"STAOPSTATE": "3",
		"STAOPSTATENAME": "运营中",
		"WGS84LNG": 120.204080,
		"WGS84LAT": 35.957840,
		"STAADDR": "山东省青岛市黄岛区^阿里山路",
		"CDCS": 0
	}, {
		"STAPILLZLCOUNT": 0,
		"STAPILLJLDXCOUNT": 2,
		"ID": "591adbe8-accf-45cb-b9c1-e186bb560ba6",
		"CODE": "3702140237",
		"NAME": "青岛蓝湾创业园充电站",
		"STATYPE": null,
		"STATYPENAME": null,
		"VISIBLE": "1",
		"STAOPSTATE": "3",
		"STAOPSTATENAME": "运营中",
		"WGS84LNG": 120.321296,
		"WGS84LAT": 36.308097,
		"STAADDR": "山东省青岛市城阳区^高新区锦汇路1号",
		"CDCS": 0
	}, {
		"STAPILLZLCOUNT": 2,
		"STAPILLJLDXCOUNT": 18,
		"ID": "749992b3-b606-4671-a922-054ecde6783d",
		"CODE": "3702120002",
		"NAME": "青岛工业技术研究院1号充电站",
		"STATYPE": null,
		"STATYPENAME": null,
		"VISIBLE": "1",
		"STAOPSTATE": "3",
		"STAOPSTATENAME": "运营中",
		"WGS84LNG": 120.281786,
		"WGS84LAT": 36.279731,
		"STAADDR": "山东省青岛市城阳区^松园路17号",
		"CDCS": 0
	}, {
		"STAPILLZLCOUNT": 1,
		"STAPILLJLDXCOUNT": 1,
		"ID": "abbc6b4b-47d8-453e-a2a4-efdc2f6414d5",
		"CODE": "3702820025",
		"NAME": "青岛即墨环境保护局充电站",
		"STATYPE": null,
		"STATYPENAME": null,
		"VISIBLE": "1",
		"STAOPSTATE": "3",
		"STAOPSTATENAME": "运营中",
		"WGS84LNG": 120.451198,
		"WGS84LAT": 36.394463,
		"STAADDR": "山东省青岛市即墨市^即墨市振华街146-1号",
		"CDCS": 0
	}, {
		"STAPILLZLCOUNT": 1,
		"STAPILLJLDXCOUNT": 5,
		"ID": "0b48c021-179e-4e96-af80-d2d4f6bb411a",
		"CODE": "3702020288",
		"NAME": "青岛格莱美奥帆中心充电站",
		"STATYPE": null,
		"STATYPENAME": null,
		"VISIBLE": "1",
		"STAOPSTATE": "3",
		"STAOPSTATENAME": "运营中",
		"WGS84LNG": 120.403764,
		"WGS84LAT": 36.061765,
		"STAADDR": "山东省青岛市市南区^金湾路6号",
		"CDCS": 0
	}, {
		"STAPILLZLCOUNT": 0,
		"STAPILLJLDXCOUNT": 3,
		"ID": "9e32b5f9-344f-4b45-a5a0-61db0dda6535",
		"CODE": "3702110084",
		"NAME": "青岛前湾海事处充电站",
		"STATYPE": null,
		"STATYPENAME": null,
		"VISIBLE": "1",
		"STAOPSTATE": "3",
		"STAOPSTATENAME": "运营中",
		"WGS84LNG": 120.201347,
		"WGS84LAT": 36.036957,
		"STAADDR": "山东省青岛市黄岛区^西海岸黄河东路73号",
		"CDCS": 0
	}, {
		"STAPILLZLCOUNT": 1,
		"STAPILLJLDXCOUNT": 6,
		"ID": "2bd6fd64-271f-4161-94fe-53c720de10b6",
		"CODE": "3702030087",
		"NAME": "青岛市就业中心充电站",
		"STATYPE": null,
		"STATYPENAME": null,
		"VISIBLE": "1",
		"STAOPSTATE": "3",
		"STAOPSTATENAME": "运营中",
		"WGS84LNG": 120.372358,
		"WGS84LAT": 36.092636,
		"STAADDR": "山东省青岛市市北区^延吉路38号",
		"CDCS": 0
	}, {
		"STAPILLZLCOUNT": 1,
		"STAPILLJLDXCOUNT": 4,
		"ID": "2be5a55d-e5b9-4897-b732-0fc45badf39f",
		"CODE": "3702850031",
		"NAME": "青岛莱西姜山镇建委充电站",
		"STATYPE": null,
		"STATYPENAME": null,
		"VISIBLE": "1",
		"STAOPSTATE": "3",
		"STAOPSTATENAME": "运营中",
		"WGS84LNG": 120.539338,
		"WGS84LAT": 36.671260,
		"STAADDR": "山东省青岛市莱西市^莱西姜山镇建委",
		"CDCS": 0
	}, {
		"STAPILLZLCOUNT": 4,
		"STAPILLJLDXCOUNT": 0,
		"ID": "6e51040b-f66d-42c6-a772-6f2299c117b6",
		"CODE": "3702120461",
		"NAME": "光伏微网充电站",
		"STATYPE": null,
		"STATYPENAME": null,
		"VISIBLE": "1",
		"STAOPSTATE": "3",
		"STAOPSTATENAME": "运营中",
		"WGS84LNG": 120.511617,
		"WGS84LAT": 36.178142,
		"STAADDR": "山东省青岛市崂山区^松岭路336号",
		"CDCS": 0
	}, {
		"STAPILLZLCOUNT": 15,
		"STAPILLJLDXCOUNT": 0,
		"ID": "6cd9c3e6-e42d-4027-9045-e8117ccd5635",
		"CODE": "3702110001",
		"NAME": "青岛安子精品充电站",
		"STATYPE": null,
		"STATYPENAME": null,
		"VISIBLE": "1",
		"STAOPSTATE": "3",
		"STAOPSTATENAME": "运营中",
		"WGS84LNG": 120.247416,
		"WGS84LAT": 35.983834,
		"STAADDR": "山东省青岛市黄岛区^S329(长江东路)",
		"CDCS": 0
	}, {
		"STAPILLZLCOUNT": 0,
		"STAPILLJLDXCOUNT": 1,
		"ID": "74e911fc-137e-4ba4-87ea-d975bd3e4478",
		"CODE": "3702120332",
		"NAME": "青岛农商总行单桩充电站",
		"STATYPE": null,
		"STATYPENAME": null,
		"VISIBLE": "1",
		"STAOPSTATE": "3",
		"STAOPSTATENAME": "运营中",
		"WGS84LNG": 120.458580,
		"WGS84LAT": 36.094179,
		"STAADDR": "山东省青岛市崂山区^香港东路109号",
		"CDCS": 0
	}, {
		"STAPILLZLCOUNT": 2,
		"STAPILLJLDXCOUNT": 0,
		"ID": "1b99da7d-d748-4615-9bcb-02c77e80a74c",
		"CODE": "3702820090",
		"NAME": "青岛即时电海立广场充电站",
		"STATYPE": null,
		"STATYPENAME": null,
		"VISIBLE": "1",
		"STAOPSTATE": "3",
		"STAOPSTATENAME": "运营中",
		"WGS84LNG": 120.461937,
		"WGS84LAT": 36.398964,
		"STAADDR": "山东省青岛市即墨市^蓝鳌路与烟青路交汇处（海立广场）",
		"CDCS": 0
	}, {
		"STAPILLZLCOUNT": 1,
		"STAPILLJLDXCOUNT": 2,
		"ID": "0ee244e2-a3f7-4672-9187-2bc51628c127",
		"CODE": "3702120345",
		"NAME": "青岛市崂林春茶业充电站",
		"STATYPE": null,
		"STATYPENAME": null,
		"VISIBLE": "1",
		"STAOPSTATE": "3",
		"STAOPSTATENAME": "运营中",
		"WGS84LNG": 120.638577,
		"WGS84LAT": 36.293973,
		"STAADDR": "山东省青岛市崂山区^王沙路/共建街（路口）西北",
		"CDCS": 0
	}, {
		"STAPILLZLCOUNT": 0,
		"STAPILLJLDXCOUNT": 12,
		"ID": "daf12b42-ab7c-442a-a384-73221794415f",
		"CODE": "3702810066",
		"NAME": "胶州特锐德工业园宿舍楼充电站",
		"STATYPE": null,
		"STATYPENAME": null,
		"VISIBLE": "1",
		"STAOPSTATE": "3",
		"STAOPSTATENAME": "运营中",
		"WGS84LNG": 120.084838,
		"WGS84LAT": 36.150190,
		"STAADDR": "山东省青岛市胶州市^经济技术开发区尚德大道1号",
		"CDCS": 0
	}, {
		"STAPILLZLCOUNT": 1,
		"STAPILLJLDXCOUNT": 2,
		"ID": "3de4faa8-7fd6-4903-a1e1-e9fc4a57adf5",
		"CODE": "3702820032",
		"NAME": "青岛即墨北汽新能源汽车城充电站",
		"STATYPE": null,
		"STATYPENAME": null,
		"VISIBLE": "1",
		"STAOPSTATE": "3",
		"STAOPSTATENAME": "运营中",
		"WGS84LNG": 120.469078,
		"WGS84LAT": 36.420442,
		"STAADDR": "山东省青岛市即墨市^青威路辅路汽车总站东500米",
		"CDCS": 0
	}, {
		"STAPILLZLCOUNT": 2,
		"STAPILLJLDXCOUNT": 4,
		"ID": "73958160-cdc0-4cfe-bb20-a836a1c78f85",
		"CODE": "3702020321",
		"NAME": "青岛火车站充电站",
		"STATYPE": null,
		"STATYPENAME": null,
		"VISIBLE": "1",
		"STAOPSTATE": "3",
		"STAOPSTATENAME": "运营中",
		"WGS84LNG": 120.320342,
		"WGS84LAT": 36.070867,
		"STAADDR": "山东省青岛市市南区^泰安路2乙",
		"CDCS": 0
	}, {
		"STAPILLZLCOUNT": 0,
		"STAPILLJLDXCOUNT": 20,
		"ID": "99df0f89-b3f9-407c-a45e-d3a60caa974d",
		"CODE": "3702020258",
		"NAME": "青岛世贸中心车库充电站",
		"STATYPE": null,
		"STATYPENAME": null,
		"VISIBLE": "1",
		"STAOPSTATE": "3",
		"STAOPSTATENAME": "运营中",
		"WGS84LNG": 120.383484,
		"WGS84LAT": 36.068392,
		"STAADDR": "山东省青岛市市南区^香港中路6号",
		"CDCS": 0
	}, {
		"STAPILLZLCOUNT": 1,
		"STAPILLJLDXCOUNT": 2,
		"ID": "c861cdda-57a7-4e9e-98c7-3d5babd33fe6",
		"CODE": "3702820044",
		"NAME": "青岛即墨市蓝色硅谷孵化器充电站",
		"STATYPE": null,
		"STATYPENAME": null,
		"VISIBLE": "1",
		"STAOPSTATE": "3",
		"STAOPSTATENAME": "运营中",
		"WGS84LNG": 120.681768,
		"WGS84LAT": 36.354926,
		"STAADDR": "山东省青岛市即墨市^蓝谷创业南路",
		"CDCS": 0
	}, {
		"STAPILLZLCOUNT": 1,
		"STAPILLJLDXCOUNT": 4,
		"ID": "34bd32f3-437a-45e1-b070-f9e53fc868dd",
		"CODE": "3702030084",
		"NAME": "青岛市北地税局充电站",
		"STATYPE": null,
		"STATYPENAME": null,
		"VISIBLE": "1",
		"STAOPSTATE": "3",
		"STAOPSTATENAME": "运营中",
		"WGS84LNG": 120.362827,
		"WGS84LAT": 36.077535,
		"STAADDR": "山东省青岛市市北区^上清路28号",
		"CDCS": 0
	}, {
		"STAPILLZLCOUNT": 2,
		"STAPILLJLDXCOUNT": 6,
		"ID": "34c11b45-eff2-4454-8cac-14a7063eb73a",
		"CODE": "3702140397",
		"NAME": "青岛星河湾1号园充电站",
		"STATYPE": null,
		"STATYPENAME": null,
		"VISIBLE": "1",
		"STAOPSTATE": "3",
		"STAOPSTATENAME": "运营中",
		"WGS84LNG": 120.342968,
		"WGS84LAT": 36.232475,
		"STAADDR": "山东省青岛市城阳区^丰海路51号",
		"CDCS": 0
	}, {
		"STAPILLZLCOUNT": 6,
		"STAPILLJLDXCOUNT": 2,
		"ID": "0d184a1b-0a49-42e5-a473-d935175b514f",
		"CODE": "3702030055",
		"NAME": "青岛天亿通旅游汽车充电站",
		"STATYPE": null,
		"STATYPENAME": null,
		"VISIBLE": "1",
		"STAOPSTATE": "3",
		"STAOPSTATENAME": "运营中",
		"WGS84LNG": 120.345495,
		"WGS84LAT": 36.130135,
		"STAADDR": "山东省青岛市市北区傍海南路25号^傍海南路25号",
		"CDCS": 0
	}, {
		"STAPILLZLCOUNT": 4,
		"STAPILLJLDXCOUNT": 12,
		"ID": "a3861513-d33b-49f8-ab28-3b1cec2c73b8",
		"CODE": "3702120272",
		"NAME": "青岛崂山创客大街充电站",
		"STATYPE": null,
		"STATYPENAME": null,
		"VISIBLE": "1",
		"STAOPSTATE": "3",
		"STAOPSTATENAME": "运营中",
		"WGS84LNG": 120.422702,
		"WGS84LAT": 36.077826,
		"STAADDR": "山东省青岛市崂山区宁夏路306号-乙^宁夏路306号",
		"CDCS": 0
	}, {
		"STAPILLZLCOUNT": 2,
		"STAPILLJLDXCOUNT": 5,
		"ID": "4b5663d7-ed25-41d7-bdf1-988508eee67d",
		"CODE": "3702850039",
		"NAME": "青岛乐好集团充电站",
		"STATYPE": null,
		"STATYPENAME": null,
		"VISIBLE": "1",
		"STAOPSTATE": "3",
		"STAOPSTATENAME": "运营中",
		"WGS84LNG": 120.514205,
		"WGS84LAT": 36.883115,
		"STAADDR": "山东省青岛市莱西市^上海西路1号",
		"CDCS": 0
	}, {
		"STAPILLZLCOUNT": 0,
		"STAPILLJLDXCOUNT": 1,
		"ID": "342de263-ffb3-4d5e-8305-3692ef6025a1",
		"CODE": "3702810036",
		"NAME": "青岛齐星铁塔立体车库充电站",
		"STATYPE": null,
		"STATYPENAME": null,
		"VISIBLE": "1",
		"STAOPSTATE": "3",
		"STAOPSTATENAME": "运营中",
		"WGS84LNG": 120.108850,
		"WGS84LAT": 36.137676,
		"STAADDR": "山东省青岛市胶州市^九龙工业园17号",
		"CDCS": 0
	}, {
		"STAPILLZLCOUNT": 3,
		"STAPILLJLDXCOUNT": 50,
		"ID": "672d47ac-55f8-47a2-b9e2-5d9f01ffdc4f",
		"CODE": "3702810029",
		"NAME": "青岛胶州特锐德西海岸工业园3号充电站",
		"STATYPE": null,
		"STATYPENAME": null,
		"VISIBLE": "1",
		"STAOPSTATE": "3",
		"STAOPSTATENAME": "运营中",
		"WGS84LNG": 120.084940,
		"WGS84LAT": 36.150214,
		"STAADDR": "山东省青岛市胶州市^尚德大道与赣江路交口处长江路1号",
		"CDCS": 0
	}, {
		"STAPILLZLCOUNT": 1,
		"STAPILLJLDXCOUNT": 16,
		"ID": "bd8c094a-7f4e-4a5d-aad1-48fa928c1e0c",
		"CODE": "3702840042",
		"NAME": "青岛滨海学院厚德楼充电站",
		"STATYPE": null,
		"STATYPENAME": null,
		"VISIBLE": "1",
		"STAOPSTATE": "3",
		"STAOPSTATENAME": "运营中",
		"WGS84LNG": 120.173571,
		"WGS84LAT": 35.985975,
		"STAADDR": "山东省青岛市黄岛区^黄岛嘉陵江西路425号",
		"CDCS": 0
	}, {
		"STAPILLZLCOUNT": 0,
		"STAPILLJLDXCOUNT": 9,
		"ID": "23644c6f-b5a2-467d-942f-37d9c4324ca1",
		"CODE": "3702020257",
		"NAME": "青岛黄海饭店充电站",
		"STATYPE": null,
		"STATYPENAME": null,
		"VISIBLE": "1",
		"STAOPSTATE": "3",
		"STAOPSTATENAME": "运营中",
		"WGS84LNG": 120.348854,
		"WGS84LAT": 36.067148,
		"STAADDR": "山东省青岛市市南区^延安一路75号",
		"CDCS": 0
	}, {
		"STAPILLZLCOUNT": 1,
		"STAPILLJLDXCOUNT": 4,
		"ID": "236e05fe-2300-4c17-9e24-8075ccb644ca",
		"CODE": "3702120347",
		"NAME": "青岛干部学院充电站",
		"STATYPE": null,
		"STATYPENAME": null,
		"VISIBLE": "1",
		"STAOPSTATE": "3",
		"STAOPSTATENAME": "运营中",
		"WGS84LNG": 120.451170,
		"WGS84LAT": 36.108988,
		"STAADDR": "山东省青岛市崂山区^同安路189号",
		"CDCS": 0
	}, {
		"STAPILLZLCOUNT": 2,
		"STAPILLJLDXCOUNT": 8,
		"ID": "ca7e3d56-b773-43a3-8b9b-2044f08b5728",
		"CODE": "3702140273",
		"NAME": "青岛元通孵化器充电站",
		"STATYPE": null,
		"STATYPENAME": null,
		"VISIBLE": "1",
		"STAOPSTATE": "3",
		"STAOPSTATENAME": "运营中",
		"WGS84LNG": 120.507045,
		"WGS84LAT": 36.309326,
		"STAADDR": "山东省青岛市城阳区^正阳东路1号",
		"CDCS": 0
	}, {
		"STAPILLZLCOUNT": 2,
		"STAPILLJLDXCOUNT": 6,
		"ID": "cdc1dc3b-8df2-4a12-8f16-0de0c6e4055f",
		"CODE": "3702140299",
		"NAME": "青岛昌隆酒店充电站",
		"STATYPE": null,
		"STATYPENAME": null,
		"VISIBLE": "1",
		"STAOPSTATE": "3",
		"STAOPSTATENAME": "运营中",
		"WGS84LNG": 120.499394,
		"WGS84LAT": 36.318784,
		"STAADDR": "山东省青岛市城阳区S214(王沙大道)^惜福镇街道东500米",
		"CDCS": 0
	}, {
		"STAPILLZLCOUNT": 1,
		"STAPILLJLDXCOUNT": 11,
		"ID": "f0391745-631d-48d2-87db-650a72b10373",
		"CODE": "3702820028",
		"NAME": "青岛芭东小镇充电站",
		"STATYPE": null,
		"STATYPENAME": null,
		"VISIBLE": "1",
		"STAOPSTATE": "3",
		"STAOPSTATENAME": "运营中",
		"WGS84LNG": 120.671743,
		"WGS84LAT": 36.458936,
		"STAADDR": "山东省青岛市即墨市^山东省青岛市即墨市芭东会所停车场",
		"CDCS": 0
	}, {
		"STAPILLZLCOUNT": 1,
		"STAPILLJLDXCOUNT": 5,
		"ID": "a07d1f8b-f03f-4451-bd4a-03644860a34b",
		"CODE": "3702130268",
		"NAME": "青岛康太源建设集团充电站",
		"STATYPE": null,
		"STATYPENAME": null,
		"VISIBLE": "1",
		"STAOPSTATE": "3",
		"STAOPSTATENAME": "运营中",
		"WGS84LNG": 120.464961,
		"WGS84LAT": 36.178572,
		"STAADDR": "山东省青岛市李沧区^工业园合川路28号",
		"CDCS": 0
	}, {
		"STAPILLZLCOUNT": 2,
		"STAPILLJLDXCOUNT": 8,
		"ID": "062a38e3-8e76-492a-909c-d908e63110c9",
		"CODE": "3702110075",
		"NAME": "青岛西海岸西部办公中心充电站",
		"STATYPE": null,
		"STATYPENAME": null,
		"VISIBLE": "1",
		"STAOPSTATE": "3",
		"STAOPSTATENAME": "运营中",
		"WGS84LNG": 120.050993,
		"WGS84LAT": 35.879467,
		"STAADDR": "山东省青岛市黄岛区^西海岸路181号",
		"CDCS": 0
	}, {
		"STAPILLZLCOUNT": 0,
		"STAPILLJLDXCOUNT": 3,
		"ID": "9f9dc4d7-1373-4218-85e5-3800445a2c8e",
		"CODE": "3702810028",
		"NAME": "青岛胶州胶东医院充电站",
		"STATYPE": null,
		"STATYPENAME": null,
		"VISIBLE": "1",
		"STAOPSTATE": "3",
		"STAOPSTATENAME": "运营中",
		"WGS84LNG": 120.096143,
		"WGS84LAT": 36.313056,
		"STAADDR": "山东省青岛市胶州市^204国道胶州胶东医院",
		"CDCS": 0
	}, {
		"STAPILLZLCOUNT": 2,
		"STAPILLJLDXCOUNT": 2,
		"ID": "425c4e50-ce00-418f-b957-c062fa53efef",
		"CODE": "3702020178",
		"NAME": "青岛机动车交易市场充电站",
		"STATYPE": null,
		"STATYPENAME": null,
		"VISIBLE": "1",
		"STAOPSTATE": "3",
		"STAOPSTATENAME": "运营中",
		"WGS84LNG": 120.405628,
		"WGS84LAT": 36.067000,
		"STAADDR": "山东省青岛市市南区^燕儿岛路3号",
		"CDCS": 0
	}, {
		"STAPILLZLCOUNT": 2,
		"STAPILLJLDXCOUNT": 8,
		"ID": "74be36c7-5ee0-4431-bbb0-407207e33ce6",
		"CODE": "3702130296",
		"NAME": "青岛世园会特来电停车场充电站",
		"STATYPE": null,
		"STATYPENAME": null,
		"VISIBLE": "1",
		"STAOPSTATE": "3",
		"STAOPSTATENAME": "运营中",
		"WGS84LNG": 120.495783,
		"WGS84LAT": 36.195818,
		"STAADDR": "山东省青岛市李沧区^世园大道停车场",
		"CDCS": 0
	}, {
		"STAPILLZLCOUNT": 0,
		"STAPILLJLDXCOUNT": 4,
		"ID": "6fd95576-c05b-482a-b91b-f4dc5a11b69b",
		"CODE": "3702020286",
		"NAME": "青岛半岛都市报社充电站",
		"STATYPE": null,
		"STATYPENAME": null,
		"VISIBLE": "1",
		"STAOPSTATE": "3",
		"STAOPSTATENAME": "运营中",
		"WGS84LNG": 120.392868,
		"WGS84LAT": 36.084630,
		"STAADDR": "山东省青岛市市南区^南京路10号",
		"CDCS": 0
	}, {
		"STAPILLZLCOUNT": 0,
		"STAPILLJLDXCOUNT": 10,
		"ID": "11f3e2ca-c51e-4cca-accf-f667b76c9161",
		"CODE": "3702140295",
		"NAME": "青岛金日唐郡充电站",
		"STATYPE": null,
		"STATYPENAME": null,
		"VISIBLE": "1",
		"STAOPSTATE": "3",
		"STAOPSTATENAME": "运营中",
		"WGS84LNG": 120.432935,
		"WGS84LAT": 36.305843,
		"STAADDR": "山东省青岛市城阳区^金日唐郡",
		"CDCS": 0
	}, {
		"STAPILLZLCOUNT": 5,
		"STAPILLJLDXCOUNT": 6,
		"ID": "071ef577-65b2-4eb6-bfcf-8e7ccf84951d",
		"CODE": "3702120018",
		"NAME": "青岛北大学术中心充电站",
		"STATYPE": null,
		"STATYPENAME": null,
		"VISIBLE": "1",
		"STAOPSTATE": "3",
		"STAOPSTATENAME": "运营中",
		"WGS84LNG": 120.519641,
		"WGS84LAT": 36.101077,
		"STAADDR": "山东省青岛市崂山区^崂山路4号",
		"CDCS": 0
	}, {
		"STAPILLZLCOUNT": 0,
		"STAPILLJLDXCOUNT": 7,
		"ID": "7ea79927-f7b9-4326-ad56-1a275de021f6",
		"CODE": "3702140258",
		"NAME": "青岛水青花园2期充电站",
		"STATYPE": null,
		"STATYPENAME": null,
		"VISIBLE": "1",
		"STAOPSTATE": "3",
		"STAOPSTATENAME": "运营中",
		"WGS84LNG": 120.438175,
		"WGS84LAT": 36.243121,
		"STAADDR": "山东省青岛市城阳区^王沙路60号",
		"CDCS": 0
	}, {
		"STAPILLZLCOUNT": 1,
		"STAPILLJLDXCOUNT": 1,
		"ID": "947c0622-86fb-4a63-8622-cddfca1e47b5",
		"CODE": "3702140319",
		"NAME": "青岛泰晤士小镇充电站",
		"STATYPE": null,
		"STATYPENAME": null,
		"VISIBLE": "1",
		"STAOPSTATE": "3",
		"STAOPSTATENAME": "运营中",
		"WGS84LNG": 120.501463,
		"WGS84LAT": 36.318268,
		"STAADDR": "山东省青岛市城阳区^S214(王沙大道)惜福镇泰晤士小镇",
		"CDCS": 0
	}, {
		"STAPILLZLCOUNT": 0,
		"STAPILLJLDXCOUNT": 2,
		"ID": "b5422bf9-a648-46d8-94b1-b2e0e846dd23",
		"CODE": "3702110045",
		"NAME": "青岛五菱充电站",
		"STATYPE": null,
		"STATYPENAME": null,
		"VISIBLE": "1",
		"STAOPSTATE": "3",
		"STAOPSTATENAME": "运营中",
		"WGS84LNG": 120.174687,
		"WGS84LAT": 36.002281,
		"STAADDR": "山东省青岛市黄岛区^团结路699号",
		"CDCS": 0
	}, {
		"STAPILLZLCOUNT": 7,
		"STAPILLJLDXCOUNT": 3,
		"ID": "36f8cda5-8caa-47d3-a61e-60ee726d3f78",
		"CODE": "3702110059",
		"NAME": "青岛名家美术馆充电站",
		"STATYPE": null,
		"STATYPENAME": null,
		"VISIBLE": "1",
		"STAOPSTATE": "3",
		"STAOPSTATENAME": "运营中",
		"WGS84LNG": 120.209085,
		"WGS84LAT": 35.954512,
		"STAADDR": "山东省青岛市黄岛区^漓江西路666号",
		"CDCS": 0
	}, {
		"STAPILLZLCOUNT": 1,
		"STAPILLJLDXCOUNT": 9,
		"ID": "352ebe7e-2888-4207-aabe-fec8d30a5a34",
		"CODE": "3702830038",
		"NAME": "青岛平度市民中心充电站",
		"STATYPE": null,
		"STATYPENAME": null,
		"VISIBLE": "1",
		"STAOPSTATE": "3",
		"STAOPSTATENAME": "运营中",
		"WGS84LNG": 119.978403,
		"WGS84LAT": 36.756829,
		"STAADDR": "山东省青岛市平度市^新区大道市民中心一号楼前",
		"CDCS": 0
	}, {
		"STAPILLZLCOUNT": 2,
		"STAPILLJLDXCOUNT": 6,
		"ID": "35334aa4-e836-4cc1-81bc-65b2c0004ecd",
		"CODE": "3702140272",
		"NAME": "青岛东唐影视充电站",
		"STATYPE": null,
		"STATYPENAME": null,
		"VISIBLE": "1",
		"STAOPSTATE": "3",
		"STAOPSTATENAME": "运营中",
		"WGS84LNG": 120.270099,
		"WGS84LAT": 36.262276,
		"STAADDR": "山东省青岛市城阳区^火炬路盘谷西",
		"CDCS": 0
	}, {
		"STAPILLZLCOUNT": 6,
		"STAPILLJLDXCOUNT": 0,
		"ID": "4f572393-bceb-45d1-8d02-6a77a39fc136",
		"CODE": "3702110046",
		"NAME": "青岛开发区巴士太行山充电站",
		"STATYPE": null,
		"STATYPENAME": null,
		"VISIBLE": "1",
		"STAOPSTATE": "3",
		"STAOPSTATENAME": "运营中",
		"WGS84LNG": 120.190075,
		"WGS84LAT": 35.953892,
		"STAADDR": "山东省青岛市黄岛区^太行山路与珠江路交叉口（西北角）",
		"CDCS": 0
	}, {
		"STAPILLZLCOUNT": 1,
		"STAPILLJLDXCOUNT": 11,
		"ID": "c956a74a-8777-4aa6-9f61-a9340e1c2175",
		"CODE": "3702120341",
		"NAME": "青岛党校充电站",
		"STATYPE": null,
		"STATYPENAME": null,
		"VISIBLE": "1",
		"STAOPSTATE": "3",
		"STAOPSTATENAME": "运营中",
		"WGS84LNG": 120.426425,
		"WGS84LAT": 36.079341,
		"STAADDR": "山东省青岛市崂山区^宁德路18号",
		"CDCS": 0
	}, {
		"STAPILLZLCOUNT": 0,
		"STAPILLJLDXCOUNT": 5,
		"ID": "728e6ec7-a63a-4d2e-bfc8-8d3fc7fff0d8",
		"CODE": "3702020019",
		"NAME": "青岛银河大厦充电站",
		"STATYPE": null,
		"STATYPENAME": null,
		"VISIBLE": "1",
		"STAOPSTATE": "3",
		"STAOPSTATENAME": "运营中",
		"WGS84LNG": 120.383795,
		"WGS84LAT": 36.085773,
		"STAADDR": "山东省青岛市市南区^山东路29号",
		"CDCS": 0
	}, {
		"STAPILLZLCOUNT": 4,
		"STAPILLJLDXCOUNT": 12,
		"ID": "e362a98a-cf28-4d2e-8e5a-b633fb2f3623",
		"CODE": "3702110014",
		"NAME": "黄岛灵珠山街道办充电站",
		"STATYPE": null,
		"STATYPENAME": null,
		"VISIBLE": "1",
		"STAOPSTATE": "3",
		"STAOPSTATENAME": "运营中",
		"WGS84LNG": 120.091728,
		"WGS84LAT": 36.021819,
		"STAADDR": "山东省青岛市黄岛区^黄河西路689号",
		"CDCS": 0
	}, {
		"STAPILLZLCOUNT": 2,
		"STAPILLJLDXCOUNT": 8,
		"ID": "559f7e02-2117-44cd-8bdd-f8c02266f030",
		"CODE": "3702110029",
		"NAME": "青岛黄岛瑞源大众4S店充电站",
		"STATYPE": null,
		"STATYPENAME": null,
		"VISIBLE": "1",
		"STAOPSTATE": "3",
		"STAOPSTATENAME": "运营中",
		"WGS84LNG": 120.176436,
		"WGS84LAT": 36.012903,
		"STAADDR": "山东省青岛市黄岛区前湾港路^黄岛前湾港路207号（江山路与团结路中段）",
		"CDCS": 0
	}, {
		"STAPILLZLCOUNT": 2,
		"STAPILLJLDXCOUNT": 2,
		"ID": "273ef6a0-0116-4af7-b500-fd732b731cef",
		"CODE": "3702130310",
		"NAME": "青岛利客来李村公园充电站",
		"STATYPE": null,
		"STATYPENAME": null,
		"VISIBLE": "1",
		"STAOPSTATE": "3",
		"STAOPSTATENAME": "运营中",
		"WGS84LNG": 120.431297,
		"WGS84LAT": 36.174509,
		"STAADDR": "山东省青岛市李沧区^夏庄路126号",
		"CDCS": 0
	}, {
		"STAPILLZLCOUNT": 1,
		"STAPILLJLDXCOUNT": 4,
		"ID": "209512d9-7428-4cde-8371-11dfb3c3f637",
		"CODE": "3702140311",
		"NAME": "青岛城阳夏庄街道社区充电站",
		"STATYPE": null,
		"STATYPENAME": null,
		"VISIBLE": "1",
		"STAOPSTATE": "3",
		"STAOPSTATENAME": "运营中",
		"WGS84LNG": 120.469574,
		"WGS84LAT": 36.279999,
		"STAADDR": "山东省青岛市城阳区^王沙路与银河路交叉口",
		"CDCS": 0
	}, {
		"STAPILLZLCOUNT": 2,
		"STAPILLJLDXCOUNT": 6,
		"ID": "b1e8c57d-37d9-47e9-85f5-f7b55149ebbd",
		"CODE": "3702140254",
		"NAME": "青岛中领电子科技充电站",
		"STATYPE": null,
		"STATYPENAME": null,
		"VISIBLE": "1",
		"STAOPSTATE": "3",
		"STAOPSTATENAME": "运营中",
		"WGS84LNG": 120.279492,
		"WGS84LAT": 36.276844,
		"STAADDR": "山东省青岛市城阳区^梅园路1号",
		"CDCS": 0
	}, {
		"STAPILLZLCOUNT": 0,
		"STAPILLJLDXCOUNT": 16,
		"ID": "aed619ae-b4d0-42e4-8dd9-5e866633c278",
		"CODE": "3702120450",
		"NAME": "特锐德崂山工业园地锁测试充电站",
		"STATYPE": null,
		"STATYPENAME": null,
		"VISIBLE": "1",
		"STAOPSTATE": "3",
		"STAOPSTATENAME": "运营中",
		"WGS84LNG": 120.511667,
		"WGS84LAT": 36.178394,
		"STAADDR": "山东省青岛市崂山区^特锐德崂山工业园南门左侧",
		"CDCS": 0
	}, {
		"STAPILLZLCOUNT": 0,
		"STAPILLJLDXCOUNT": 24,
		"ID": "1a066022-6cfb-4206-baaa-73952b0f8da1",
		"CODE": "3702140001",
		"NAME": "青岛紫荆苑宾馆汽车充电站",
		"STATYPE": null,
		"STATYPENAME": null,
		"VISIBLE": "1",
		"STAOPSTATE": "3",
		"STAOPSTATENAME": "运营中",
		"WGS84LNG": 120.267525,
		"WGS84LAT": 36.269737,
		"STAADDR": "山东省青岛市城阳区^高新区智力岛路18号",
		"CDCS": 0
	}, {
		"STAPILLZLCOUNT": 14,
		"STAPILLJLDXCOUNT": 32,
		"ID": "ae0fd256-7510-4f33-8571-aef222206c66",
		"CODE": "3702850003",
		"NAME": "青岛北汽莱西工业园充电站",
		"STATYPE": null,
		"STATYPENAME": null,
		"VISIBLE": "1",
		"STAOPSTATE": "3",
		"STAOPSTATENAME": "运营中",
		"WGS84LNG": 120.533324,
		"WGS84LAT": 36.677382,
		"STAADDR": "山东省青岛市莱西市^姜山镇",
		"CDCS": 0
	}, {
		"STAPILLZLCOUNT": 0,
		"STAPILLJLDXCOUNT": 2,
		"ID": "bcc7b568-4c6b-4ced-8b10-c2d5a4fe3169",
		"CODE": "3702110083",
		"NAME": "青岛黄岛海事处充电站",
		"STATYPE": null,
		"STATYPENAME": null,
		"VISIBLE": "1",
		"STAOPSTATE": "3",
		"STAOPSTATENAME": "运营中",
		"WGS84LNG": 120.218118,
		"WGS84LAT": 36.043816,
		"STAADDR": "山东省青岛市黄岛区^西海岸崇明岛西路75号",
		"CDCS": 0
	}, {
		"STAPILLZLCOUNT": 0,
		"STAPILLJLDXCOUNT": 1,
		"ID": "7d57b3df-d85e-4486-bba3-c487b85d5a12",
		"CODE": "3702830046",
		"NAME": "青岛平度委员会充电站",
		"STATYPE": null,
		"STATYPENAME": null,
		"VISIBLE": "1",
		"STAOPSTATE": "3",
		"STAOPSTATENAME": "运营中",
		"WGS84LNG": 120.006658,
		"WGS84LAT": 36.784077,
		"STAADDR": "山东省青岛市平度市^广州路16-1号",
		"CDCS": 0
	}, {
		"STAPILLZLCOUNT": 1,
		"STAPILLJLDXCOUNT": 6,
		"ID": "4004e4c2-dc23-48b2-884b-7d83123d67f9",
		"CODE": "3702110069",
		"NAME": "青岛黄岛建邦听海充电站",
		"STATYPE": null,
		"STATYPENAME": null,
		"VISIBLE": "1",
		"STAOPSTATE": "3",
		"STAOPSTATENAME": "运营中",
		"WGS84LNG": 120.130116,
		"WGS84LAT": 35.927289,
		"STAADDR": "山东省青岛市黄岛区S329^泰薛路南",
		"CDCS": 0
	}, {
		"STAPILLZLCOUNT": 4,
		"STAPILLJLDXCOUNT": 0,
		"ID": "77715924-4c38-4898-b2af-eae9e855ed98",
		"CODE": "3702110034",
		"NAME": "青岛西海岸公交六汪镇充电站",
		"STATYPE": null,
		"STATYPENAME": null,
		"VISIBLE": "1",
		"STAOPSTATE": "3",
		"STAOPSTATENAME": "运营中",
		"WGS84LNG": 119.790817,
		"WGS84LAT": 35.947349,
		"STAADDR": "山东省青岛市黄岛区^六汪公交换乘站",
		"CDCS": 0
	}, {
		"STAPILLZLCOUNT": 4,
		"STAPILLJLDXCOUNT": 5,
		"ID": "40c3725a-967a-4fad-a41d-ca87b2efc4bb",
		"CODE": "3702030072",
		"NAME": "青岛福州路万科中心充电站",
		"STATYPE": null,
		"STATYPENAME": null,
		"VISIBLE": "1",
		"STAOPSTATE": "3",
		"STAOPSTATENAME": "运营中",
		"WGS84LNG": 120.401239,
		"WGS84LAT": 36.117712,
		"STAADDR": "山东省青岛市市北区哈尔滨路73号^黑龙江南路2号(福州北路与黑龙江南路交汇处)",
		"CDCS": 0
	}, {
		"STAPILLZLCOUNT": 6,
		"STAPILLJLDXCOUNT": 2,
		"ID": "8e8c3493-bcd6-4519-b49e-186efb9600b2",
		"CODE": "3702120247",
		"NAME": "青岛鑫润世佳充电站",
		"STATYPE": null,
		"STATYPENAME": null,
		"VISIBLE": "1",
		"STAOPSTATE": "3",
		"STAOPSTATENAME": "运营中",
		"WGS84LNG": 120.436690,
		"WGS84LAT": 36.110496,
		"STAADDR": "山东省青岛市崂山区^同兴路710号",
		"CDCS": 0
	}, {
		"STAPILLZLCOUNT": 1,
		"STAPILLJLDXCOUNT": 4,
		"ID": "8b4360bc-3464-4b94-b15c-bf0b2bc795d3",
		"CODE": "3702130281",
		"NAME": "青岛方圆达建筑充电站",
		"STATYPE": null,
		"STATYPENAME": null,
		"VISIBLE": "1",
		"STAOPSTATE": "3",
		"STAOPSTATENAME": "运营中",
		"WGS84LNG": 120.432216,
		"WGS84LAT": 36.200278,
		"STAADDR": "山东省青岛市李沧区^君峰路38号甲",
		"CDCS": 0
	}, {
		"STAPILLZLCOUNT": 1,
		"STAPILLJLDXCOUNT": 4,
		"ID": "0bffdca1-91bc-4c0d-9b57-763dd4695b58",
		"CODE": "3702810044",
		"NAME": "青岛胶州利客来胶东超市充电站",
		"STATYPE": null,
		"STATYPENAME": null,
		"VISIBLE": "1",
		"STAOPSTATE": "3",
		"STAOPSTATENAME": "运营中",
		"WGS84LNG": 120.110277,
		"WGS84LAT": 36.317083,
		"STAADDR": "山东省青岛市胶州市^胶东镇小麻湾西村",
		"CDCS": 0
	}, {
		"STAPILLZLCOUNT": 2,
		"STAPILLJLDXCOUNT": 6,
		"ID": "79d20a08-1d5f-49d4-9c40-e18e3226d8d0",
		"CODE": "3702120245",
		"NAME": "青岛市场监督局充电站",
		"STATYPE": null,
		"STATYPENAME": null,
		"VISIBLE": "1",
		"STAOPSTATE": "3",
		"STAOPSTATENAME": "运营中",
		"WGS84LNG": 120.466770,
		"WGS84LAT": 36.111247,
		"STAADDR": "山东省青岛市崂山区^深圳路181号",
		"CDCS": 0
	}, {
		"STAPILLZLCOUNT": 1,
		"STAPILLJLDXCOUNT": 5,
		"ID": "06fe3b94-3510-4ab8-8361-d1237b1260cb",
		"CODE": "3702820008",
		"NAME": "青岛北汽新能源顺熙利体验中心充电站",
		"STATYPE": null,
		"STATYPENAME": null,
		"VISIBLE": "1",
		"STAOPSTATE": "3",
		"STAOPSTATENAME": "运营中",
		"WGS84LNG": 120.443086,
		"WGS84LAT": 36.353999,
		"STAADDR": "山东省青岛市即墨市^烟青路56-12号",
		"CDCS": 0
	}, {
		"STAPILLZLCOUNT": 1,
		"STAPILLJLDXCOUNT": 6,
		"ID": "707df8f4-a264-43af-a7f9-6f47c17d1379",
		"CODE": "3702140412",
		"NAME": "青岛中国科学院声学研究所北海研究站充电站",
		"STATYPE": null,
		"STATYPENAME": null,
		"VISIBLE": "1",
		"STAOPSTATE": "3",
		"STAOPSTATENAME": "运营中",
		"WGS84LNG": 120.285978,
		"WGS84LAT": 36.278355,
		"STAADDR": "高新区汇智桥路96号",
		"CDCS": 0
	}, {
		"STAPILLZLCOUNT": 1,
		"STAPILLJLDXCOUNT": 2,
		"ID": "70834a9a-573f-48e8-b434-90bf8c650cae",
		"CODE": "3702820042",
		"NAME": "青岛市荆山机械厂充电站",
		"STATYPE": null,
		"STATYPENAME": null,
		"VISIBLE": "1",
		"STAOPSTATE": "3",
		"STAOPSTATENAME": "运营中",
		"WGS84LNG": 120.596107,
		"WGS84LAT": 36.447696,
		"STAADDR": "山东省青岛市即墨市^297省道岭上村",
		"CDCS": 0
	}, {
		"STAPILLZLCOUNT": 1,
		"STAPILLJLDXCOUNT": 4,
		"ID": "f8beadcf-d6b1-49a3-8c9f-833626021575",
		"CODE": "3702110063",
		"NAME": "青岛黄岛广电西侧充电站",
		"STATYPE": null,
		"STATYPENAME": null,
		"VISIBLE": "1",
		"STAOPSTATE": "3",
		"STAOPSTATENAME": "运营中",
		"WGS84LNG": 120.047955,
		"WGS84LAT": 35.878724,
		"STAADDR": "山东省青岛市黄岛区^深圳路177号",
		"CDCS": 0
	}, {
		"STAPILLZLCOUNT": 20,
		"STAPILLJLDXCOUNT": 0,
		"ID": "501a66dd-d055-4cc0-bfd4-4f2fb587e57c",
		"CODE": "3702140241",
		"NAME": "青岛流亭机场汽车运输公司充电站",
		"STATYPE": null,
		"STATYPENAME": null,
		"VISIBLE": "1",
		"STAOPSTATE": "3",
		"STAOPSTATENAME": "运营中",
		"WGS84LNG": 120.394345,
		"WGS84LAT": 36.281437,
		"STAADDR": "山东省青岛市城阳区^新郑路21号院内",
		"CDCS": 0
	}, {
		"STAPILLZLCOUNT": 6,
		"STAPILLJLDXCOUNT": 0,
		"ID": "581dbac2-5d13-4d30-a50c-b1696778edd1",
		"CODE": "3702020337",
		"NAME": "青岛麗枫酒店充电站",
		"STATYPE": null,
		"STATYPENAME": null,
		"VISIBLE": "1",
		"STAOPSTATE": "3",
		"STAOPSTATENAME": "运营中",
		"WGS84LNG": 120.392271,
		"WGS84LAT": 36.089234,
		"STAADDR": "山东省青岛市市南区^宁夏路120号",
		"CDCS": 0
	}, {
		"STAPILLZLCOUNT": 0,
		"STAPILLJLDXCOUNT": 1,
		"ID": "e398161c-d06b-49ba-9097-1524b16be8e7",
		"CODE": "3702030136",
		"NAME": "青岛欣盛汽车销售充电站",
		"STATYPE": null,
		"STATYPENAME": null,
		"VISIBLE": "1",
		"STAOPSTATE": "3",
		"STAOPSTATENAME": "运营中",
		"WGS84LNG": 120.395504,
		"WGS84LAT": 36.131187,
		"STAADDR": "山东省青岛市市北区^重庆南路186号",
		"CDCS": 0
	}, {
		"STAPILLZLCOUNT": 0,
		"STAPILLJLDXCOUNT": 10,
		"ID": "17dfe205-6b99-4c66-a0f7-69f6d85ffc9b",
		"CODE": "3702140344",
		"NAME": "青岛凯丰国际广场充电站",
		"STATYPE": null,
		"STATYPENAME": null,
		"VISIBLE": "1",
		"STAOPSTATE": "3",
		"STAOPSTATENAME": "运营中",
		"WGS84LNG": 120.283820,
		"WGS84LAT": 36.274088,
		"STAADDR": "山东省青岛市城阳区^智力岛东路",
		"CDCS": 0
	}, {
		"STAPILLZLCOUNT": 0,
		"STAPILLJLDXCOUNT": 17,
		"ID": "b2abbf4e-198f-4de3-ad67-224a515fd8d2",
		"CODE": "3702130257",
		"NAME": "青岛李沧绿城喜来登充电站",
		"STATYPE": null,
		"STATYPENAME": null,
		"VISIBLE": "1",
		"STAOPSTATE": "3",
		"STAOPSTATENAME": "运营中",
		"WGS84LNG": 120.455509,
		"WGS84LAT": 36.182944,
		"STAADDR": "山东省青岛市李沧区^金水路678号",
		"CDCS": 0
	}, {
		"STAPILLZLCOUNT": 3,
		"STAPILLJLDXCOUNT": 18,
		"ID": "48e5e523-6d69-4e4c-b43c-62b34de02f46",
		"CODE": "3702120268",
		"NAME": "青岛海尔集团能源充电站",
		"STATYPE": null,
		"STATYPENAME": null,
		"VISIBLE": "1",
		"STAOPSTATE": "3",
		"STAOPSTATENAME": "运营中",
		"WGS84LNG": 120.430955,
		"WGS84LAT": 36.140275,
		"STAADDR": "山东省青岛市崂山区^海尔路1号",
		"CDCS": 0
	}, {
		"STAPILLZLCOUNT": 2,
		"STAPILLJLDXCOUNT": 6,
		"ID": "d84e54aa-adb9-4b44-958e-24daddd295c8",
		"CODE": "3702820049",
		"NAME": "青岛晨之晖创业孵化基地充电站",
		"STATYPE": null,
		"STATYPENAME": null,
		"VISIBLE": "1",
		"STAOPSTATE": "3",
		"STAOPSTATENAME": "运营中",
		"WGS84LNG": 120.520568,
		"WGS84LAT": 36.399581,
		"STAADDR": "山东省青岛市即墨市^龙山街道办事处西程哥庄村",
		"CDCS": 0
	}, {
		"STAPILLZLCOUNT": 1,
		"STAPILLJLDXCOUNT": 4,
		"ID": "a947a186-7279-46fd-9e32-9f29d6e9f213",
		"CODE": "3702030114",
		"NAME": "青岛北海环境监测中心充电站",
		"STATYPE": null,
		"STATYPENAME": null,
		"VISIBLE": "1",
		"STAOPSTATE": "3",
		"STAOPSTATENAME": "运营中",
		"WGS84LNG": 120.374455,
		"WGS84LAT": 36.106174,
		"STAADDR": "山东省青岛市市北区^抚顺路22-乙号",
		"CDCS": 0
	}, {
		"STAPILLZLCOUNT": 2,
		"STAPILLJLDXCOUNT": 8,
		"ID": "56eb37c6-d4ea-4eb0-a721-5023945c7324",
		"CODE": "3702110068",
		"NAME": "青岛王台镇政府充电站",
		"STATYPE": null,
		"STATYPENAME": null,
		"VISIBLE": "1",
		"STAOPSTATE": "3",
		"STAOPSTATENAME": "运营中",
		"WGS84LNG": 120.014974,
		"WGS84LAT": 36.078055,
		"STAADDR": "山东省青岛市黄岛区^台中路17号",
		"CDCS": 0
	}, {
		"STAPILLZLCOUNT": 2,
		"STAPILLJLDXCOUNT": 6,
		"ID": "9e2ca06e-b9be-4dbe-94f6-992306b4e95a",
		"CODE": "3702110087",
		"NAME": "青岛圣美尔集团充电站",
		"STATYPE": null,
		"STATYPENAME": null,
		"VISIBLE": "1",
		"STAOPSTATE": "3",
		"STAOPSTATENAME": "运营中",
		"WGS84LNG": 120.187184,
		"WGS84LAT": 36.047892,
		"STAADDR": "山东省青岛市黄岛区淮河东路^西海岸龙岗山路699号",
		"CDCS": 0
	}, {
		"STAPILLZLCOUNT": 2,
		"STAPILLJLDXCOUNT": 16,
		"ID": "a6f9f0e4-e349-44e4-bbc6-379188c0d492",
		"CODE": "3702120370",
		"NAME": "青岛海尔全球创新中心充电站",
		"STATYPE": null,
		"STATYPENAME": null,
		"VISIBLE": "1",
		"STAOPSTATE": "3",
		"STAOPSTATENAME": "运营中",
		"WGS84LNG": 120.445866,
		"WGS84LAT": 36.074501,
		"STAADDR": "山东省青岛市崂山区^东海路",
		"CDCS": 0
	}, {
		"STAPILLZLCOUNT": 2,
		"STAPILLJLDXCOUNT": 6,
		"ID": "6dffcac6-6205-4a0e-b5ea-c1bc72b36e26",
		"CODE": "3702020307",
		"NAME": "青岛军培中心充电站",
		"STATYPE": null,
		"STATYPENAME": null,
		"VISIBLE": "1",
		"STAOPSTATE": "3",
		"STAOPSTATENAME": "运营中",
		"WGS84LNG": 120.317104,
		"WGS84LAT": 36.063902,
		"STAADDR": "山东省青岛市市南区^贵州路69号",
		"CDCS": 0
	}, {
		"STAPILLZLCOUNT": 1,
		"STAPILLJLDXCOUNT": 2,
		"ID": "5d75f44a-75d7-41c2-892e-56ee8fa41ca9",
		"CODE": "3702140339",
		"NAME": "青岛市地税局城阳分局充电站",
		"STATYPE": null,
		"STATYPENAME": null,
		"VISIBLE": "1",
		"STAOPSTATE": "3",
		"STAOPSTATENAME": "运营中",
		"WGS84LNG": 120.400226,
		"WGS84LAT": 36.311672,
		"STAADDR": "山东省青岛市城阳区^中城路243-1",
		"CDCS": 0
	}, {
		"STAPILLZLCOUNT": 2,
		"STAPILLJLDXCOUNT": 3,
		"ID": "b0facdda-c890-422a-bbcb-5641ae741578",
		"CODE": "3702110203",
		"NAME": "青岛红建集团充电站",
		"STATYPE": null,
		"STATYPENAME": null,
		"VISIBLE": "1",
		"STAOPSTATE": "3",
		"STAOPSTATENAME": "运营中",
		"WGS84LNG": 120.117961,
		"WGS84LAT": 36.101562,
		"STAADDR": "山东省青岛市黄岛区^S328(千山北路)",
		"CDCS": 0
	}, {
		"STAPILLZLCOUNT": 1,
		"STAPILLJLDXCOUNT": 0,
		"ID": "f79b4830-d803-4d67-b23e-298277dceb0d",
		"CODE": "3702130033",
		"NAME": "青岛车管家九水路充电站",
		"STATYPE": null,
		"STATYPENAME": null,
		"VISIBLE": "1",
		"STAOPSTATE": "3",
		"STAOPSTATENAME": "运营中",
		"WGS84LNG": 120.498972,
		"WGS84LAT": 36.178018,
		"STAADDR": "山东省青岛市李沧区^九水路588号",
		"CDCS": 0
	}, {
		"STAPILLZLCOUNT": 0,
		"STAPILLJLDXCOUNT": 2,
		"ID": "9b8f749c-ac08-4443-accd-a677db202179",
		"CODE": "3702130332",
		"NAME": "青岛后海热电充电站",
		"STATYPE": null,
		"STATYPENAME": null,
		"VISIBLE": "1",
		"STAOPSTATE": "3",
		"STAOPSTATENAME": "运营中",
		"WGS84LNG": 120.384360,
		"WGS84LAT": 36.183925,
		"STAADDR": "山东省青岛市李沧区^沧兴路8号",
		"CDCS": 0
	}, {
		"STAPILLZLCOUNT": 0,
		"STAPILLJLDXCOUNT": 9,
		"ID": "c819ce67-6ae4-4cd1-a581-d3f6b70068d2",
		"CODE": "3702140257",
		"NAME": "青岛水青木华4期充电站",
		"STATYPE": null,
		"STATYPENAME": null,
		"VISIBLE": "1",
		"STAOPSTATE": "3",
		"STAOPSTATENAME": "运营中",
		"WGS84LNG": 120.432555,
		"WGS84LAT": 36.244238,
		"STAADDR": "山东省青岛市城阳区^黑龙江中路216号鑫江水青木华4期",
		"CDCS": 0
	}, {
		"STAPILLZLCOUNT": 2,
		"STAPILLJLDXCOUNT": 0,
		"ID": "c81ee4df-c3bc-4f14-b003-5d2e555146c2",
		"CODE": "3702020347",
		"NAME": "青岛电视塔充电站",
		"STATYPE": null,
		"STATYPENAME": null,
		"VISIBLE": "1",
		"STAOPSTATE": "3",
		"STAOPSTATENAME": "运营中",
		"WGS84LNG": 120.361239,
		"WGS84LAT": 36.075316,
		"STAADDR": "山东省青岛市市南区^太平山路1号",
		"CDCS": 0
	}, {
		"STAPILLZLCOUNT": 1,
		"STAPILLJLDXCOUNT": 4,
		"ID": "2a5a51eb-545d-47ea-80ed-2b16015c276d",
		"CODE": "3702810055",
		"NAME": "青岛胶州阜安派出所充电站",
		"STATYPE": null,
		"STATYPENAME": null,
		"VISIBLE": "1",
		"STAOPSTATE": "3",
		"STAOPSTATENAME": "运营中",
		"WGS84LNG": 120.019420,
		"WGS84LAT": 36.290160,
		"STAADDR": "山东省青岛市胶州市^兰州东路阜安派出所",
		"CDCS": 0
	}, {
		"STAPILLZLCOUNT": 1,
		"STAPILLJLDXCOUNT": 0,
		"ID": "757e7b30-c538-470d-a40f-5a52e1e441e5",
		"CODE": "3702030011",
		"NAME": "青岛油猴快修充电站",
		"STATYPE": null,
		"STATYPENAME": null,
		"VISIBLE": "1",
		"STAOPSTATE": "3",
		"STAOPSTATENAME": "运营中",
		"WGS84LNG": 120.424369,
		"WGS84LAT": 36.099422,
		"STAADDR": "山东省青岛市市北区^银川西路136号",
		"CDCS": 0
	}, {
		"STAPILLZLCOUNT": 4,
		"STAPILLJLDXCOUNT": 10,
		"ID": "a68184b0-a56f-4c3a-acdd-2d0d296d6929",
		"CODE": "3702830036",
		"NAME": "青岛江淮千霖店充电站",
		"STATYPE": null,
		"STATYPENAME": null,
		"VISIBLE": "1",
		"STAOPSTATE": "3",
		"STAOPSTATENAME": "运营中",
		"WGS84LNG": 119.935557,
		"WGS84LAT": 36.781135,
		"STAADDR": "山东省青岛市平度市^青岛路477-7号",
		"CDCS": 0
	}, {
		"STAPILLZLCOUNT": 4,
		"STAPILLJLDXCOUNT": 22,
		"ID": "da99de50-fef9-4141-91c4-9311921429a8",
		"CODE": "3702120265",
		"NAME": "中国新能源生态科技馆充电站",
		"STATYPE": null,
		"STATYPENAME": null,
		"VISIBLE": "1",
		"STAOPSTATE": "3",
		"STAOPSTATENAME": "运营中",
		"WGS84LNG": 120.510611,
		"WGS84LAT": 36.178543,
		"STAADDR": "山东省青岛市崂山区S293(松岭路)^松岭路336号",
		"CDCS": 0
	}, {
		"STAPILLZLCOUNT": 0,
		"STAPILLJLDXCOUNT": 3,
		"ID": "372e9b97-12b8-48bc-9952-2220bf6c71c8",
		"CODE": "3702140320",
		"NAME": "青岛锦璘原著充电站",
		"STATYPE": null,
		"STATYPENAME": null,
		"VISIBLE": "1",
		"STAOPSTATE": "3",
		"STAOPSTATENAME": "运营中",
		"WGS84LNG": 120.438528,
		"WGS84LAT": 36.231036,
		"STAADDR": "山东省青岛市城阳区^王沙路36号",
		"CDCS": 0
	}, {
		"STAPILLZLCOUNT": 3,
		"STAPILLJLDXCOUNT": 19,
		"ID": "b57a8775-d55c-4957-95af-42bceb85ef2d",
		"CODE": "3702140002",
		"NAME": "青岛盘谷科技园1号充电站",
		"STATYPE": null,
		"STATYPENAME": null,
		"VISIBLE": "1",
		"STAOPSTATE": "3",
		"STAOPSTATENAME": "运营中",
		"WGS84LNG": 120.280390,
		"WGS84LAT": 36.265704,
		"STAADDR": "山东省青岛市城阳区^高新区火炬路100号",
		"CDCS": 0
	}, {
		"STAPILLZLCOUNT": 1,
		"STAPILLJLDXCOUNT": 3,
		"ID": "88206203-28f9-4ffd-b0ab-c9090358830c",
		"CODE": "3702130336",
		"NAME": "青岛李沧区法院充电站",
		"STATYPE": null,
		"STATYPENAME": null,
		"VISIBLE": "1",
		"STAOPSTATE": "3",
		"STAOPSTATENAME": "运营中",
		"WGS84LNG": 120.425330,
		"WGS84LAT": 36.182560,
		"STAADDR": "山东省青岛市李沧区^金水路1303",
		"CDCS": 0
	}, {
		"STAPILLZLCOUNT": 2,
		"STAPILLJLDXCOUNT": 6,
		"ID": "d26026a4-9236-4d92-8574-59ec5de452c3",
		"CODE": "3702140326",
		"NAME": "山东新能源汽车主题公园充电站",
		"STATYPE": null,
		"STATYPENAME": null,
		"VISIBLE": "1",
		"STAOPSTATE": "3",
		"STAOPSTATENAME": "运营中",
		"WGS84LNG": 120.233530,
		"WGS84LAT": 36.254781,
		"STAADDR": "山东省青岛市城阳区^火炬大道与新悦路交汇处",
		"CDCS": 0
	}, {
		"STAPILLZLCOUNT": 24,
		"STAPILLJLDXCOUNT": 0,
		"ID": "9cf3e4e0-9fce-450d-a798-f5eb0a7425db",
		"CODE": "3702110117",
		"NAME": "青岛安子码头公交枢纽站二期充电站",
		"STATYPE": null,
		"STATYPENAME": null,
		"VISIBLE": "1",
		"STAOPSTATE": "3",
		"STAOPSTATENAME": "运营中",
		"WGS84LNG": 120.246759,
		"WGS84LAT": 35.985147,
		"STAADDR": "山东省青岛市黄岛区^山东省青岛市黄岛区区长江东路南侧、滨海大道连接线东侧",
		"CDCS": 0
	}, {
		"STAPILLZLCOUNT": 2,
		"STAPILLJLDXCOUNT": 5,
		"ID": "225e3f65-c571-4050-b1bb-dc630edecaa0",
		"CODE": "3702110202",
		"NAME": "青岛隐珠街道办新充电站",
		"STATYPE": null,
		"STATYPENAME": null,
		"VISIBLE": "1",
		"STAOPSTATE": "3",
		"STAOPSTATENAME": "运营中",
		"WGS84LNG": 120.029179,
		"WGS84LAT": 35.847263,
		"STAADDR": "山东省青岛市黄岛区^月牙河路",
		"CDCS": 0
	}, {
		"STAPILLZLCOUNT": 0,
		"STAPILLJLDXCOUNT": 2,
		"ID": "0cc33b45-b1e3-4552-8696-5b87889d3d7d",
		"CODE": "3702140313",
		"NAME": "青岛恒东晟充电站",
		"STATYPE": null,
		"STATYPENAME": null,
		"VISIBLE": "1",
		"STAOPSTATE": "3",
		"STAOPSTATENAME": "运营中",
		"WGS84LNG": 120.377147,
		"WGS84LAT": 36.246811,
		"STAADDR": "山东省青岛市城阳区^仙山路与仙山支路交叉口，双流高架桥下（流亭街道蓝家庄社区南800米）",
		"CDCS": 0
	}, {
		"STAPILLZLCOUNT": 1,
		"STAPILLJLDXCOUNT": 4,
		"ID": "86d267c3-5919-4fc2-82da-557129988f63",
		"CODE": "3702810056",
		"NAME": "青岛市胶州营海派出所充电站",
		"STATYPE": null,
		"STATYPENAME": null,
		"VISIBLE": "1",
		"STAOPSTATE": "3",
		"STAOPSTATENAME": "运营中",
		"WGS84LNG": 120.083043,
		"WGS84LAT": 36.221319,
		"STAADDR": "山东省青岛市胶州市^九龙街道九龙街道办",
		"CDCS": 0
	}, {
		"STAPILLZLCOUNT": 4,
		"STAPILLJLDXCOUNT": 12,
		"ID": "068f9245-79d1-4cf7-86ae-36418185f93f",
		"CODE": "3702030086",
		"NAME": "青岛卜蜂莲花充电站",
		"STATYPE": null,
		"STATYPENAME": null,
		"VISIBLE": "1",
		"STAOPSTATE": "3",
		"STAOPSTATENAME": "运营中",
		"WGS84LNG": 120.428126,
		"WGS84LAT": 36.110902,
		"STAADDR": "山东省青岛市市北区^辽阳西路369号",
		"CDCS": 0
	}, {
		"STAPILLZLCOUNT": 0,
		"STAPILLJLDXCOUNT": 4,
		"ID": "a9681de0-ed66-4d78-9cda-286a2dd66a32",
		"CODE": "3702810032",
		"NAME": "青岛胶州三里河派出所充电站",
		"STATYPE": null,
		"STATYPENAME": null,
		"VISIBLE": "1",
		"STAOPSTATE": "3",
		"STAOPSTATENAME": "运营中",
		"WGS84LNG": 120.009452,
		"WGS84LAT": 36.273081,
		"STAADDR": "山东省青岛市胶州市^三里河派出所",
		"CDCS": 0
	}, {
		"STAPILLZLCOUNT": 1,
		"STAPILLJLDXCOUNT": 10,
		"ID": "4e39018a-5530-487c-b352-3fdfccd391a4",
		"CODE": "3702120273",
		"NAME": "青岛崂山金家岭街道办充电站",
		"STATYPE": null,
		"STATYPENAME": null,
		"VISIBLE": "1",
		"STAOPSTATE": "3",
		"STAOPSTATENAME": "运营中",
		"WGS84LNG": 120.463748,
		"WGS84LAT": 36.114928,
		"STAADDR": "山东省青岛市崂山区^深圳路177",
		"CDCS": 0
	}, {
		"STAPILLZLCOUNT": 1,
		"STAPILLJLDXCOUNT": 2,
		"ID": "a2f5c85e-ef45-4249-a642-1db7884711b1",
		"CODE": "3702140332",
		"NAME": "青岛海纳光电充电站",
		"STATYPE": null,
		"STATYPENAME": null,
		"VISIBLE": "1",
		"STAOPSTATE": "3",
		"STAOPSTATENAME": "运营中",
		"WGS84LNG": 120.285677,
		"WGS84LAT": 36.281132,
		"STAADDR": "山东省青岛市城阳区^河东路379号",
		"CDCS": 0
	}, {
		"STAPILLZLCOUNT": 1,
		"STAPILLJLDXCOUNT": 6,
		"ID": "e18df322-4133-4090-80b3-eedeb0bc2604",
		"CODE": "3702810047",
		"NAME": "青岛天和汽修充电站",
		"STATYPE": null,
		"STATYPENAME": null,
		"VISIBLE": "1",
		"STAOPSTATE": "3",
		"STAOPSTATENAME": "运营中",
		"WGS84LNG": 120.032358,
		"WGS84LAT": 36.280047,
		"STAADDR": "山东省青岛市胶州市^扬州东路与厦门路交汇处",
		"CDCS": 0
	}, {
		"STAPILLZLCOUNT": 3,
		"STAPILLJLDXCOUNT": 4,
		"ID": "3569a297-1646-4fa6-a731-e25fdf877b5d",
		"CODE": "3702140399",
		"NAME": "青岛诺然环保产业园充电站",
		"STATYPE": null,
		"STATYPENAME": null,
		"VISIBLE": "1",
		"STAOPSTATE": "3",
		"STAOPSTATENAME": "运营中",
		"WGS84LNG": 120.298594,
		"WGS84LAT": 36.322371,
		"STAADDR": "山东省青岛市城阳区^科海路",
		"CDCS": 0
	}, {
		"STAPILLZLCOUNT": 23,
		"STAPILLJLDXCOUNT": 20,
		"ID": "37b529f9-bc1f-4b1f-b005-41b746cb4f3e",
		"CODE": "3702020250",
		"NAME": "青岛市政府充电站",
		"STATYPE": null,
		"STATYPENAME": null,
		"VISIBLE": "1",
		"STAOPSTATE": "3",
		"STAOPSTATENAME": "运营中",
		"WGS84LNG": 120.389697,
		"WGS84LAT": 36.073988,
		"STAADDR": "山东省青岛市市南区^香港中路11号",
		"CDCS": 0
	}, {
		"STAPILLZLCOUNT": 1,
		"STAPILLJLDXCOUNT": 2,
		"ID": "5500bd53-ef8e-4dc7-8a52-de0af506c6d9",
		"CODE": "3702130334",
		"NAME": "青岛九水路派出所充电站",
		"STATYPE": null,
		"STATYPENAME": null,
		"VISIBLE": "1",
		"STAOPSTATE": "3",
		"STAOPSTATENAME": "运营中",
		"WGS84LNG": 120.466530,
		"WGS84LAT": 36.170246,
		"STAADDR": "山东省青岛市李沧区^衡水路139号",
		"CDCS": 0
	}, {
		"STAPILLZLCOUNT": 2,
		"STAPILLJLDXCOUNT": 8,
		"ID": "8f23ed5e-d9e8-4842-ad24-30ed59a12e29",
		"CODE": "3702020317",
		"NAME": "青岛专家公寓充电站",
		"STATYPE": null,
		"STATYPENAME": null,
		"VISIBLE": "1",
		"STAOPSTATE": "3",
		"STAOPSTATENAME": "运营中",
		"WGS84LNG": 120.413340,
		"WGS84LAT": 36.067542,
		"STAADDR": "山东省青岛市市南区^珠海二路5号",
		"CDCS": 0
	}, {
		"STAPILLZLCOUNT": 0,
		"STAPILLJLDXCOUNT": 1,
		"ID": "be23faff-7730-4a3f-aa38-56cc1cf40ebe",
		"CODE": "3702120327",
		"NAME": "青岛汽车销售丁巍充电站",
		"STATYPE": null,
		"STATYPENAME": null,
		"VISIBLE": "1",
		"STAOPSTATE": "3",
		"STAOPSTATENAME": "运营中",
		"WGS84LNG": 120.487909,
		"WGS84LAT": 36.106563,
		"STAADDR": "山东省青岛市崂山区^青岛香港东路225号千禧龙苑",
		"CDCS": 0
	}, {
		"STAPILLZLCOUNT": 2,
		"STAPILLJLDXCOUNT": 2,
		"ID": "3595a572-577a-4055-ab95-b88917fd8b74",
		"CODE": "3702110112",
		"NAME": "青岛地铁灵山卫充电站",
		"STATYPE": null,
		"STATYPENAME": null,
		"VISIBLE": "1",
		"STAOPSTATE": "3",
		"STAOPSTATENAME": "运营中",
		"WGS84LNG": 120.151042,
		"WGS84LAT": 35.932802,
		"STAADDR": "山东省青岛市黄岛区^公交站右拐前行100米",
		"CDCS": 0
	}, {
		"STAPILLZLCOUNT": 0,
		"STAPILLJLDXCOUNT": 2,
		"ID": "d1930a77-0776-4c51-91f4-acbeb4df2d11",
		"CODE": "3702140322",
		"NAME": "青岛丹香食品充电站",
		"STATYPE": null,
		"STATYPENAME": null,
		"VISIBLE": "1",
		"STAOPSTATE": "3",
		"STAOPSTATENAME": "运营中",
		"WGS84LNG": 120.448490,
		"WGS84LAT": 36.298978,
		"STAADDR": "山东省青岛市城阳区^铁骑山路383号",
		"CDCS": 0
	}, {
		"STAPILLZLCOUNT": 2,
		"STAPILLJLDXCOUNT": 2,
		"ID": "36b938cc-7480-4bf2-a6f8-6b93776070d4",
		"CODE": "3702110099",
		"NAME": "青岛瑞源一汽4S店充电站",
		"STATYPE": null,
		"STATYPENAME": null,
		"VISIBLE": "1",
		"STAOPSTATE": "3",
		"STAOPSTATENAME": "运营中",
		"WGS84LNG": 120.043143,
		"WGS84LAT": 35.896598,
		"STAADDR": "山东省青岛市黄岛区^胶南朝阳山路898号",
		"CDCS": 0
	}, {
		"STAPILLZLCOUNT": 0,
		"STAPILLJLDXCOUNT": 2,
		"ID": "a82d2252-eda0-47a0-9ce1-9a26f56ac37a",
		"CODE": "3702110056",
		"NAME": "青岛中德生态园绿馆充电站",
		"STATYPE": null,
		"STATYPENAME": null,
		"VISIBLE": "1",
		"STAOPSTATE": "3",
		"STAOPSTATENAME": "运营中",
		"WGS84LNG": 120.130866,
		"WGS84LAT": 36.072253,
		"STAADDR": "山东省青岛市黄岛区^团结路2877号",
		"CDCS": 0
	}, {
		"STAPILLZLCOUNT": 1,
		"STAPILLJLDXCOUNT": 5,
		"ID": "c4a2dd56-133c-4c5a-9da1-a95b4fd77006",
		"CODE": "3702020296",
		"NAME": "青岛国税局购置税征收管理分局充电站",
		"STATYPE": null,
		"STATYPENAME": null,
		"VISIBLE": "1",
		"STAOPSTATE": "3",
		"STAOPSTATENAME": "运营中",
		"WGS84LNG": 120.329762,
		"WGS84LAT": 36.071103,
		"STAADDR": "山东省青岛市市南区^德县路4号",
		"CDCS": 0
	}, {
		"STAPILLZLCOUNT": 1,
		"STAPILLJLDXCOUNT": 3,
		"ID": "f8d27cb4-3e1d-466b-b9d3-d65090cd1fc6",
		"CODE": "3702820051",
		"NAME": "青岛红领集团南侧充电站",
		"STATYPE": null,
		"STATYPENAME": null,
		"VISIBLE": "1",
		"STAOPSTATE": "3",
		"STAOPSTATENAME": "运营中",
		"WGS84LNG": 120.440743,
		"WGS84LAT": 36.350447,
		"STAADDR": "山东省青岛市即墨市^红领大街17号",
		"CDCS": 0
	}, {
		"STAPILLZLCOUNT": 0,
		"STAPILLJLDXCOUNT": 0,
		"ID": "cd371fff-383d-4396-a441-d3d0daf7cf61",
		"CODE": "3702110101",
		"NAME": "青岛保税区管委西侧充电站",
		"STATYPE": null,
		"STATYPENAME": null,
		"VISIBLE": "1",
		"STAOPSTATE": "3",
		"STAOPSTATENAME": "运营中",
		"WGS84LNG": 120.185916,
		"WGS84LAT": 35.989694,
		"STAADDR": "山东省青岛市黄岛区^北京路57号",
		"CDCS": 0
	}, {
		"STAPILLZLCOUNT": 6,
		"STAPILLJLDXCOUNT": 4,
		"ID": "2816672f-5654-43ad-92d2-57b62f6443b0",
		"CODE": "3702810050",
		"NAME": "胶州开发区管委会西区充电站",
		"STATYPE": null,
		"STATYPENAME": null,
		"VISIBLE": "1",
		"STAOPSTATE": "3",
		"STAOPSTATENAME": "运营中",
		"WGS84LNG": 120.096219,
		"WGS84LAT": 36.170429,
		"STAADDR": "山东省青岛市胶州市^经济开发区管委大楼西侧",
		"CDCS": 0
	}, {
		"STAPILLZLCOUNT": 5,
		"STAPILLJLDXCOUNT": 0,
		"ID": "1b54abef-e747-470c-bada-753a6bc21ae8",
		"CODE": "3702120464",
		"NAME": "青岛弄海园酒店充电站",
		"STATYPE": null,
		"STATYPENAME": null,
		"VISIBLE": "1",
		"STAOPSTATE": "3",
		"STAOPSTATENAME": "运营中",
		"WGS84LNG": 120.479134,
		"WGS84LAT": 36.101081,
		"STAADDR": "山东省青岛市崂山区^秦岭路316号",
		"CDCS": 0
	}, {
		"STAPILLZLCOUNT": 1,
		"STAPILLJLDXCOUNT": 0,
		"ID": "b3a6d2ee-56d2-4fc3-89a8-a945d0676cfa",
		"CODE": "3702140360",
		"NAME": "青岛吉利自由风充电站",
		"STATYPE": null,
		"STATYPENAME": null,
		"VISIBLE": "1",
		"STAOPSTATE": "3",
		"STAOPSTATENAME": "运营中",
		"WGS84LNG": 120.439069,
		"WGS84LAT": 36.211257,
		"STAADDR": "山东省青岛市城阳区^山东省青岛市城阳区G308(黑龙江中路)",
		"CDCS": 0
	}, {
		"STAPILLZLCOUNT": 1,
		"STAPILLJLDXCOUNT": 0,
		"ID": "28ae1387-3c8b-4251-9f34-94b6dd8d5788",
		"CODE": "3702120372",
		"NAME": "青岛胜利聚福源加气站充电站",
		"STATYPE": null,
		"STATYPENAME": null,
		"VISIBLE": "1",
		"STAOPSTATE": "3",
		"STAOPSTATENAME": "运营中",
		"WGS84LNG": 120.438077,
		"WGS84LAT": 36.132100,
		"STAADDR": "山东省青岛市崂山区^海尔路13号",
		"CDCS": 0
	}, {
		"STAPILLZLCOUNT": 16,
		"STAPILLJLDXCOUNT": 0,
		"ID": "f1bfecfe-9497-4e92-8940-4cd2bb53c3fd",
		"CODE": "3702120422",
		"NAME": "青岛特锐德能效计划充电站",
		"STATYPE": null,
		"STATYPENAME": null,
		"VISIBLE": "1",
		"STAOPSTATE": "3",
		"STAOPSTATENAME": "运营中",
		"WGS84LNG": 120.511042,
		"WGS84LAT": 36.178227,
		"STAADDR": "山东省青岛市崂山区^松岭路336号",
		"CDCS": 0
	}, {
		"STAPILLZLCOUNT": 1,
		"STAPILLJLDXCOUNT": 4,
		"ID": "5fcb16cc-8600-4823-9d35-6bfdb9f69171",
		"CODE": "3702020279",
		"NAME": "青岛农业委员会充电站",
		"STATYPE": null,
		"STATYPENAME": null,
		"VISIBLE": "1",
		"STAOPSTATE": "3",
		"STAOPSTATENAME": "运营中",
		"WGS84LNG": 120.406202,
		"WGS84LAT": 36.069037,
		"STAADDR": "山东省青岛市市南区^燕儿岛路10号",
		"CDCS": 0
	}, {
		"STAPILLZLCOUNT": 1,
		"STAPILLJLDXCOUNT": 8,
		"ID": "7e2dc51d-73da-4c3a-af19-ea30b3a179da",
		"CODE": "3702110082",
		"NAME": "青岛军民融合充电站",
		"STATYPE": null,
		"STATYPENAME": null,
		"VISIBLE": "1",
		"STAOPSTATE": "3",
		"STAOPSTATENAME": "运营中",
		"WGS84LNG": 120.012744,
		"WGS84LAT": 35.849993,
		"STAADDR": "山东省青岛市黄岛区^三沙（原上海南路530号）",
		"CDCS": 0
	}, {
		"STAPILLZLCOUNT": 1,
		"STAPILLJLDXCOUNT": 0,
		"ID": "792a444a-dc18-422b-9dfc-ad230d8e567e",
		"CODE": "3702850061",
		"NAME": "莱西西贤都迎春公共快充站",
		"STATYPE": null,
		"STATYPENAME": null,
		"VISIBLE": "1",
		"STAOPSTATE": "3",
		"STAOPSTATENAME": "运营中",
		"WGS84LNG": 120.553790,
		"WGS84LAT": 36.825225,
		"STAADDR": "山东省青岛市莱西市^望城街道",
		"CDCS": 0
	}, {
		"STAPILLZLCOUNT": 2,
		"STAPILLJLDXCOUNT": 6,
		"ID": "792d4008-ab78-4c51-9e44-77f2a34902cc",
		"CODE": "3702110071",
		"NAME": "青岛辛安街道充电站",
		"STATYPE": null,
		"STATYPENAME": null,
		"VISIBLE": "1",
		"STAOPSTATE": "3",
		"STAOPSTATENAME": "运营中",
		"WGS84LNG": 120.146352,
		"WGS84LAT": 36.025030,
		"STAADDR": "山东省青岛市黄岛区^青岛市黄岛区黄河中路351号",
		"CDCS": 0
	}, {
		"STAPILLZLCOUNT": 2,
		"STAPILLJLDXCOUNT": 0,
		"ID": "536fa7a2-14f1-4f44-af6f-25a70d3d0a41",
		"CODE": "3702140346",
		"NAME": "青岛泰能双元路充电站",
		"STATYPE": null,
		"STATYPENAME": null,
		"VISIBLE": "1",
		"STAOPSTATE": "3",
		"STAOPSTATENAME": "运营中",
		"WGS84LNG": 120.365993,
		"WGS84LAT": 36.259063,
		"STAADDR": "山东省青岛市城阳区^流亭街道双元路西侧",
		"CDCS": 0
	}, {
		"STAPILLZLCOUNT": 4,
		"STAPILLJLDXCOUNT": 24,
		"ID": "8bf20bb7-34a0-4ec7-8a4d-3090f680431d",
		"CODE": "3702850002",
		"NAME": "青岛莱西市政府充电站",
		"STATYPE": null,
		"STATYPENAME": null,
		"VISIBLE": "1",
		"STAOPSTATE": "3",
		"STAOPSTATENAME": "运营中",
		"WGS84LNG": 120.524224,
		"WGS84LAT": 36.894351,
		"STAADDR": "山东省青岛市莱西市^北京路105号",
		"CDCS": 0
	}, {
		"STAPILLZLCOUNT": 2,
		"STAPILLJLDXCOUNT": 5,
		"ID": "f5ae1b94-4019-4ae0-a211-0ebb162ea4f5",
		"CODE": "3702850053",
		"NAME": "莱西市沽河街道办充电站",
		"STATYPE": null,
		"STATYPENAME": null,
		"VISIBLE": "1",
		"STAOPSTATE": "3",
		"STAOPSTATENAME": "运营中",
		"WGS84LNG": 120.411281,
		"WGS84LAT": 36.850190,
		"STAADDR": "山东省青岛市莱西市^水牛路20号",
		"CDCS": 0
	}, {
		"STAPILLZLCOUNT": 1,
		"STAPILLJLDXCOUNT": 4,
		"ID": "48d69393-a010-4e9e-be8a-360c1f8624ab",
		"CODE": "3702140347",
		"NAME": "青岛红岛街道充电站",
		"STATYPE": null,
		"STATYPENAME": null,
		"VISIBLE": "1",
		"STAOPSTATE": "3",
		"STAOPSTATENAME": "运营中",
		"WGS84LNG": 120.269647,
		"WGS84LAT": 36.215848,
		"STAADDR": "山东省青岛市城阳区^309省道",
		"CDCS": 0
	}, {
		"STAPILLZLCOUNT": 77,
		"STAPILLJLDXCOUNT": 74,
		"ID": "cac23cf7-52c0-4082-9cfa-25a8dbb750d2",
		"CODE": "3702120322",
		"NAME": "青岛特来电测试组专用测试站",
		"STATYPE": null,
		"STATYPENAME": null,
		"VISIBLE": "1",
		"STAOPSTATE": "3",
		"STAOPSTATENAME": "运营中",
		"WGS84LNG": 120.513845,
		"WGS84LAT": 36.185721,
		"STAADDR": "山东省青岛市崂山区^松岭路336号",
		"CDCS": 0
	}, {
		"STAPILLZLCOUNT": 0,
		"STAPILLJLDXCOUNT": 6,
		"ID": "8ad6a848-9c65-4d32-9800-60e2827cf048",
		"CODE": "3702120338",
		"NAME": "青岛地质勘察研究院充电站",
		"STATYPE": null,
		"STATYPENAME": null,
		"VISIBLE": "1",
		"STAOPSTATE": "3",
		"STAOPSTATENAME": "运营中",
		"WGS84LNG": 120.482323,
		"WGS84LAT": 36.159099,
		"STAADDR": "山东省青岛市崂山区^科苑纬四路73号",
		"CDCS": 0
	}, {
		"STAPILLZLCOUNT": 0,
		"STAPILLJLDXCOUNT": 5,
		"ID": "a3a7a753-52cb-4699-9cdd-59edfacf0e42",
		"CODE": "3702130346",
		"NAME": "青岛大德行车管家充电站",
		"STATYPE": null,
		"STATYPENAME": null,
		"VISIBLE": "1",
		"STAOPSTATE": "3",
		"STAOPSTATENAME": "运营中",
		"WGS84LNG": 120.496735,
		"WGS84LAT": 36.177682,
		"STAADDR": "山东省青岛市李沧区^九水东路588号",
		"CDCS": 0
	}, {
		"STAPILLZLCOUNT": 3,
		"STAPILLJLDXCOUNT": 0,
		"ID": "aa398e88-ad44-4cc4-bcca-ad184c67f57b",
		"CODE": "3702110168",
		"NAME": "青岛宏程粤海酒店充电站",
		"STATYPE": null,
		"STATYPENAME": null,
		"VISIBLE": "1",
		"STAOPSTATE": "3",
		"STAOPSTATENAME": "运营中",
		"WGS84LNG": 120.052549,
		"WGS84LAT": 35.889000,
		"STAADDR": "山东省青岛市黄岛区^南海路499号",
		"CDCS": 0
	}, {
		"STAPILLZLCOUNT": 1,
		"STAPILLJLDXCOUNT": 2,
		"ID": "d374bc56-4ec0-4899-9d67-36c1b720d98e",
		"CODE": "3702140315",
		"NAME": "青岛城阳城建集团充电站",
		"STATYPE": null,
		"STATYPENAME": null,
		"VISIBLE": "1",
		"STAOPSTATE": "3",
		"STAOPSTATENAME": "运营中",
		"WGS84LNG": 120.555708,
		"WGS84LAT": 36.329987,
		"STAADDR": "山东省青岛市城阳区^惜福镇街道西葛家社区王沙路1506号",
		"CDCS": 0
	}, {
		"STAPILLZLCOUNT": 2,
		"STAPILLJLDXCOUNT": 4,
		"ID": "7fc0a62c-b144-4c5a-9a08-91b147d3f4de",
		"CODE": "3702110102",
		"NAME": "青岛银沙滩温德姆酒店充电站",
		"STATYPE": null,
		"STATYPENAME": null,
		"VISIBLE": "1",
		"STAOPSTATE": "3",
		"STAOPSTATENAME": "运营中",
		"WGS84LNG": 120.208182,
		"WGS84LAT": 35.927323,
		"STAADDR": "山东省青岛市黄岛区^近郊凤凰岛国际旅游岛银沙滩路178号",
		"CDCS": 0
	}, {
		"STAPILLZLCOUNT": 2,
		"STAPILLJLDXCOUNT": 5,
		"ID": "a7442486-ea03-47df-9029-fe62c670aabc",
		"CODE": "3702140256",
		"NAME": "青岛城阳北曲烧烤美食城充电站",
		"STATYPE": null,
		"STATYPENAME": null,
		"VISIBLE": "1",
		"STAOPSTATE": "3",
		"STAOPSTATENAME": "运营中",
		"WGS84LNG": 120.433625,
		"WGS84LAT": 36.306592,
		"STAADDR": "山东省青岛市城阳区^城阳街道大北曲东社区",
		"CDCS": 0
	}, {
		"STAPILLZLCOUNT": 1,
		"STAPILLJLDXCOUNT": 0,
		"ID": "2ef8cc3d-1eca-4475-851b-885b261db9e7",
		"CODE": "3702140376",
		"NAME": "青岛洁神洗涤充电站",
		"STATYPE": null,
		"STATYPENAME": null,
		"VISIBLE": "1",
		"STAOPSTATE": "3",
		"STAOPSTATENAME": "运营中",
		"WGS84LNG": 120.324249,
		"WGS84LAT": 36.324777,
		"STAADDR": "山东省青岛市城阳区^棘洪滩街道荣海四路7号",
		"CDCS": 0
	}, {
		"STAPILLZLCOUNT": 4,
		"STAPILLJLDXCOUNT": 12,
		"ID": "1e35eff3-dfe0-4a8c-a0ae-b01bbc2f3c3b",
		"CODE": "3702110108",
		"NAME": "青岛海湾化学充电站",
		"STATYPE": null,
		"STATYPENAME": null,
		"VISIBLE": "1",
		"STAOPSTATE": "3",
		"STAOPSTATENAME": "运营中",
		"WGS84LNG": 119.759916,
		"WGS84LAT": 35.651807,
		"STAADDR": "山东省青岛市黄岛区^董家口经济区港丰路66号",
		"CDCS": 0
	}, {
		"STAPILLZLCOUNT": 1,
		"STAPILLJLDXCOUNT": 4,
		"ID": "9cdad5d4-0784-4f3f-aedc-69257952fc3b",
		"CODE": "3702110207",
		"NAME": "青岛海尔中德充电站",
		"STATYPE": null,
		"STATYPENAME": null,
		"VISIBLE": "1",
		"STAOPSTATE": "3",
		"STAOPSTATENAME": "运营中",
		"WGS84LNG": 120.089786,
		"WGS84LAT": 36.064296,
		"STAADDR": "山东省青岛市黄岛区^中德生态园",
		"CDCS": 0
	}, {
		"STAPILLZLCOUNT": 1,
		"STAPILLJLDXCOUNT": 0,
		"ID": "9434de7c-98e5-4356-bb3f-a76935cdcd0f",
		"CODE": "3702030138",
		"NAME": "青岛君嘉懿公共快充站",
		"STATYPE": null,
		"STATYPENAME": null,
		"VISIBLE": "1",
		"STAOPSTATE": "3",
		"STAOPSTATENAME": "运营中",
		"WGS84LNG": 120.414050,
		"WGS84LAT": 36.108354,
		"STAADDR": "山东省青岛市市北区^辽阳西路258号",
		"CDCS": 0
	}, {
		"STAPILLZLCOUNT": 4,
		"STAPILLJLDXCOUNT": 24,
		"ID": "8f4ea373-62d3-4416-818a-2c62049786c3",
		"CODE": "3702140235",
		"NAME": "青岛蓝湾智谷1号充电站",
		"STATYPE": null,
		"STATYPENAME": null,
		"VISIBLE": "1",
		"STAOPSTATE": "3",
		"STAOPSTATENAME": "运营中",
		"WGS84LNG": 120.274933,
		"WGS84LAT": 36.265928,
		"STAADDR": "山东省青岛市城阳区新地路^高新区火炬路91号",
		"CDCS": 0
	}, {
		"STAPILLZLCOUNT": 12,
		"STAPILLJLDXCOUNT": 0,
		"ID": "1ea28ba3-72bd-4cbf-b6ed-37b45d057fd3",
		"CODE": "3702810016",
		"NAME": "青岛胶州公交李哥庄充电站",
		"STATYPE": null,
		"STATYPENAME": null,
		"VISIBLE": "1",
		"STAOPSTATE": "3",
		"STAOPSTATENAME": "运营中",
		"WGS84LNG": 120.178193,
		"WGS84LAT": 36.337854,
		"STAADDR": "山东省青岛市胶州市^李哥庄街道沽河大街",
		"CDCS": 0
	}, {
		"STAPILLZLCOUNT": 0,
		"STAPILLJLDXCOUNT": 5,
		"ID": "72f5565d-c039-400a-a823-0290e82232fc",
		"CODE": "3702850060",
		"NAME": "莱西市人民检察院充电站",
		"STATYPE": null,
		"STATYPENAME": null,
		"VISIBLE": "1",
		"STAOPSTATE": "3",
		"STAOPSTATENAME": "运营中",
		"WGS84LNG": 120.539933,
		"WGS84LAT": 36.869370,
		"STAADDR": "山东省青岛市莱西市^威海东路59号",
		"CDCS": 0
	}, {
		"STAPILLZLCOUNT": 1,
		"STAPILLJLDXCOUNT": 0,
		"ID": "a35e903a-3298-4f65-8833-189125a32d7f",
		"CODE": "3702030127",
		"NAME": "青岛南山社区充电站",
		"STATYPE": null,
		"STATYPENAME": null,
		"VISIBLE": "1",
		"STAOPSTATE": "3",
		"STAOPSTATENAME": "运营中",
		"WGS84LNG": 120.373218,
		"WGS84LAT": 36.108492,
		"STAADDR": "山东省青岛市市北区^鞍山二路40号",
		"CDCS": 0
	}, {
		"STAPILLZLCOUNT": 1,
		"STAPILLJLDXCOUNT": 4,
		"ID": "cdf9153d-9dae-467d-a23b-7ceb20e96531",
		"CODE": "3702110072",
		"NAME": "青岛西海岸市民服务中心充电站",
		"STATYPE": null,
		"STATYPENAME": null,
		"VISIBLE": "1",
		"STAOPSTATE": "3",
		"STAOPSTATENAME": "运营中",
		"WGS84LNG": 120.015354,
		"WGS84LAT": 35.884154,
		"STAADDR": "山东省青岛市黄岛区^西海岸水灵山路59号",
		"CDCS": 0
	}, {
		"STAPILLZLCOUNT": 2,
		"STAPILLJLDXCOUNT": 4,
		"ID": "e14c237b-a92e-4172-bef3-437518ed31ea",
		"CODE": "3702130333",
		"NAME": "青岛利客来湘潭路充电站",
		"STATYPE": null,
		"STATYPENAME": null,
		"VISIBLE": "1",
		"STAOPSTATE": "3",
		"STAOPSTATENAME": "运营中",
		"WGS84LNG": 120.412384,
		"WGS84LAT": 36.230381,
		"STAADDR": "山东省青岛市李沧区^湘潭路23号",
		"CDCS": 0
	}, {
		"STAPILLZLCOUNT": 1,
		"STAPILLJLDXCOUNT": 4,
		"ID": "e14de0b6-903b-45ee-b9ee-df2a11c395ca",
		"CODE": "3702820053",
		"NAME": "青岛至慧新材料公司充电站",
		"STATYPE": null,
		"STATYPENAME": null,
		"VISIBLE": "1",
		"STAOPSTATE": "3",
		"STAOPSTATENAME": "运营中",
		"WGS84LNG": 120.349353,
		"WGS84LAT": 36.368581,
		"STAADDR": "山东省青岛市即墨市^大信镇天山三路",
		"CDCS": 0
	}, {
		"STAPILLZLCOUNT": 2,
		"STAPILLJLDXCOUNT": 6,
		"ID": "6c9bb083-e50a-4569-8a80-4be6c5e1dc21",
		"CODE": "3702820036",
		"NAME": "青岛南山美爵酒店充电站",
		"STATYPE": null,
		"STATYPENAME": null,
		"VISIBLE": "1",
		"STAOPSTATE": "3",
		"STAOPSTATENAME": "运营中",
		"WGS84LNG": 120.723147,
		"WGS84LAT": 36.427872,
		"STAADDR": "山东省青岛市即墨市^温泉镇温泉二路与滨海大道交汇处青岛新南国际度假酒店、",
		"CDCS": 0
	}, {
		"STAPILLZLCOUNT": 1,
		"STAPILLJLDXCOUNT": 4,
		"ID": "3e87c5d8-eaa3-4a68-b9c8-fbbbd01e8f03",
		"CODE": "3702140302",
		"NAME": "青岛城阳夏庄街道办充电站",
		"STATYPE": null,
		"STATYPENAME": null,
		"VISIBLE": "1",
		"STAOPSTATE": "3",
		"STAOPSTATENAME": "运营中",
		"WGS84LNG": 120.464070,
		"WGS84LAT": 36.264293,
		"STAADDR": "山东省青岛市城阳区^书晖路与王沙路交叉口",
		"CDCS": 0
	}, {
		"STAPILLZLCOUNT": 1,
		"STAPILLJLDXCOUNT": 5,
		"ID": "2026a369-65cf-4c61-aa5a-37d7017045e1",
		"CODE": "3702110080",
		"NAME": "青岛欧德汽车充电站",
		"STATYPE": null,
		"STATYPENAME": null,
		"VISIBLE": "1",
		"STAOPSTATE": "3",
		"STAOPSTATENAME": "运营中",
		"WGS84LNG": 120.165915,
		"WGS84LAT": 35.959478,
		"STAADDR": "山东省青岛市黄岛区^西海岸峨眉山路于富春江路交汇路口",
		"CDCS": 0
	}, {
		"STAPILLZLCOUNT": 20,
		"STAPILLJLDXCOUNT": 0,
		"ID": "1f0a3e95-b3b4-4c4f-a377-81fe4c3d1ee1",
		"CODE": "3702020357",
		"NAME": "青岛南京路1号充电站",
		"STATYPE": null,
		"STATYPENAME": null,
		"VISIBLE": "1",
		"STAOPSTATE": "3",
		"STAOPSTATENAME": "运营中",
		"WGS84LNG": 120.398414,
		"WGS84LAT": 36.070324,
		"STAADDR": "山东省青岛市市南区东海西路43-甲号^东海西路43-甲号",
		"CDCS": 0
	}, {
		"STAPILLZLCOUNT": 8,
		"STAPILLJLDXCOUNT": 0,
		"ID": "06c35c03-9e4a-476a-9b96-fbcfc77a1bd6",
		"CODE": "3702110022",
		"NAME": "青岛西海岸公交宝山充电站",
		"STATYPE": null,
		"STATYPENAME": null,
		"VISIBLE": "1",
		"STAOPSTATE": "3",
		"STAOPSTATENAME": "运营中",
		"WGS84LNG": 119.896692,
		"WGS84LAT": 36.006596,
		"STAADDR": "山东省青岛市黄岛区^宝山镇公交换乘站",
		"CDCS": 0
	}, {
		"STAPILLZLCOUNT": 1,
		"STAPILLJLDXCOUNT": 10,
		"ID": "2b98d528-2d07-4091-ae77-5fb18e63a0dd",
		"CODE": "3702140003",
		"NAME": "青岛城阳区政府充电站",
		"STATYPE": null,
		"STATYPENAME": null,
		"VISIBLE": "1",
		"STAOPSTATE": "3",
		"STAOPSTATENAME": "运营中",
		"WGS84LNG": 120.402854,
		"WGS84LAT": 36.313295,
		"STAADDR": "山东省青岛市城阳区^正阳中路201号",
		"CDCS": 0
	}, {
		"STAPILLZLCOUNT": 0,
		"STAPILLJLDXCOUNT": 6,
		"ID": "46da423b-cb39-4981-b5f8-2d8db11a60c0",
		"CODE": "3702120249",
		"NAME": "青岛华仁药业东区充电站",
		"STATYPE": null,
		"STATYPENAME": null,
		"VISIBLE": "1",
		"STAOPSTATE": "3",
		"STAOPSTATENAME": "运营中",
		"WGS84LNG": 120.450583,
		"WGS84LAT": 36.139955,
		"STAADDR": "山东省青岛市崂山区^株洲路179号",
		"CDCS": 0
	}, {
		"STAPILLZLCOUNT": 1,
		"STAPILLJLDXCOUNT": 4,
		"ID": "f9745374-7133-411e-ae8f-cceb255df825",
		"CODE": "3702110106",
		"NAME": "青岛藏南便民中心充电站",
		"STATYPE": null,
		"STATYPENAME": null,
		"VISIBLE": "1",
		"STAOPSTATE": "3",
		"STAOPSTATENAME": "运营中",
		"WGS84LNG": 119.831262,
		"WGS84LAT": 35.763870,
		"STAADDR": "山东省青岛市黄岛区^芙蓉路",
		"CDCS": 0
	}, {
		"STAPILLZLCOUNT": 2,
		"STAPILLJLDXCOUNT": 8,
		"ID": "d1508c2a-80f0-4767-a90d-e48ead42e352",
		"CODE": "3702120260",
		"NAME": "青岛同安路九六九充电站",
		"STATYPE": null,
		"STATYPENAME": null,
		"VISIBLE": "1",
		"STAOPSTATE": "3",
		"STAOPSTATENAME": "运营中",
		"WGS84LNG": 120.469907,
		"WGS84LAT": 36.122841,
		"STAADDR": "山东省青岛市崂山区^同安路969号",
		"CDCS": 0
	}, {
		"STAPILLZLCOUNT": 2,
		"STAPILLJLDXCOUNT": 6,
		"ID": "279a6953-a882-4f1f-98f1-3617473d326d",
		"CODE": "3702850056",
		"NAME": "莱西市紫悦府小区公共车位充电站",
		"STATYPE": null,
		"STATYPENAME": null,
		"VISIBLE": "1",
		"STAOPSTATE": "3",
		"STAOPSTATENAME": "运营中",
		"WGS84LNG": 120.506279,
		"WGS84LAT": 36.894169,
		"STAADDR": "山东省青岛市莱西市深圳北路^深圳北路",
		"CDCS": 0
	}, {
		"STAPILLZLCOUNT": 5,
		"STAPILLJLDXCOUNT": 0,
		"ID": "8591d5c0-ee66-43d1-b838-9a7bbb176640",
		"CODE": "3702020270",
		"NAME": "青岛金瑞汽修团岛四路充电站",
		"STATYPE": null,
		"STATYPENAME": null,
		"VISIBLE": "1",
		"STAOPSTATE": "3",
		"STAOPSTATENAME": "运营中",
		"WGS84LNG": 120.303408,
		"WGS84LAT": 36.068513,
		"STAADDR": "山东省青岛市市南区^四川路31号",
		"CDCS": 0
	}, {
		"STAPILLZLCOUNT": 1,
		"STAPILLJLDXCOUNT": 6,
		"ID": "98f6542d-8718-46e6-800d-958b634d13c4",
		"CODE": "3702810061",
		"NAME": "胶州少海汇创客生态圈充电站",
		"STATYPE": null,
		"STATYPENAME": null,
		"VISIBLE": "1",
		"STAOPSTATE": "3",
		"STAOPSTATENAME": "运营中",
		"WGS84LNG": 120.090962,
		"WGS84LAT": 36.219869,
		"STAADDR": "山东省青岛市胶州市^经济技术开发区尚德大道以东、汾河路以南",
		"CDCS": 0
	}, {
		"STAPILLZLCOUNT": 2,
		"STAPILLJLDXCOUNT": 2,
		"ID": "53cdd893-cc1f-4ce5-a66d-a783c4d9ef72",
		"CODE": "3702140309",
		"NAME": "青岛冠捷科技充电站",
		"STATYPE": null,
		"STATYPENAME": null,
		"VISIBLE": "1",
		"STAOPSTATE": "3",
		"STAOPSTATENAME": "运营中",
		"WGS84LNG": 120.267331,
		"WGS84LAT": 36.263065,
		"STAADDR": "山东省青岛市城阳区^高新区火炬路99号",
		"CDCS": 0
	}, {
		"STAPILLZLCOUNT": 2,
		"STAPILLJLDXCOUNT": 2,
		"ID": "0712e04b-1548-47a9-a858-2f99e9b6d9bd",
		"CODE": "3702140403",
		"NAME": "青岛高新水电充电站",
		"STATYPE": null,
		"STATYPENAME": null,
		"VISIBLE": "1",
		"STAOPSTATE": "3",
		"STAOPSTATENAME": "运营中",
		"WGS84LNG": 120.253321,
		"WGS84LAT": 36.274075,
		"STAADDR": "山东省青岛市城阳区^河东路",
		"CDCS": 0
	}, {
		"STAPILLZLCOUNT": 2,
		"STAPILLJLDXCOUNT": 0,
		"ID": "fc7d27e5-c592-4b7c-80e2-d3f6eed30d3d",
		"CODE": "3702120373",
		"NAME": "青岛特锐德崂山厂区单桩充电站",
		"STATYPE": null,
		"STATYPENAME": null,
		"VISIBLE": "1",
		"STAOPSTATE": "3",
		"STAOPSTATENAME": "运营中",
		"WGS84LNG": 120.511961,
		"WGS84LAT": 36.178020,
		"STAADDR": "山东省青岛市崂山区S293(松岭路)^S293(松岭路)",
		"CDCS": 0
	}, {
		"STAPILLZLCOUNT": 3,
		"STAPILLJLDXCOUNT": 0,
		"ID": "9471e74c-a48a-4e32-8bfa-9dc538ff1114",
		"CODE": "3702110195",
		"NAME": "青岛西海岸泊车香江路智能停车场充电站",
		"STATYPE": null,
		"STATYPENAME": null,
		"VISIBLE": "1",
		"STAOPSTATE": "3",
		"STAOPSTATENAME": "运营中",
		"WGS84LNG": 120.186478,
		"WGS84LAT": 35.975226,
		"STAADDR": "山东省青岛市黄岛区^香江路69号",
		"CDCS": 0
	}, {
		"STAPILLZLCOUNT": 1,
		"STAPILLJLDXCOUNT": 3,
		"ID": "e0c0794d-e621-4087-b3d6-1aa3f4f4abef",
		"CODE": "3702140382",
		"NAME": "青岛李沧区交警大队瑞金路中队充电站",
		"STATYPE": null,
		"STATYPENAME": null,
		"VISIBLE": "1",
		"STAOPSTATE": "3",
		"STAOPSTATENAME": "运营中",
		"WGS84LNG": 120.399468,
		"WGS84LAT": 36.236097,
		"STAADDR": "山东省青岛市李沧区^瑞金路1号",
		"CDCS": 0
	}, {
		"STAPILLZLCOUNT": 1,
		"STAPILLJLDXCOUNT": 1,
		"ID": "17195060-c3b4-46c8-8aa1-fd81fc68a1f0",
		"CODE": "3702140361",
		"NAME": "青岛市城阳区农业局充电站",
		"STATYPE": null,
		"STATYPENAME": null,
		"VISIBLE": "1",
		"STAOPSTATE": "3",
		"STAOPSTATENAME": "运营中",
		"WGS84LNG": 120.407696,
		"WGS84LAT": 36.314234,
		"STAADDR": "山东省青岛市城阳区^德阳路195号",
		"CDCS": 0
	}, {
		"STAPILLZLCOUNT": 1,
		"STAPILLJLDXCOUNT": 0,
		"ID": "019c0e5d-ca95-4aa5-98d3-e2e23769b11b",
		"CODE": "3702030100",
		"NAME": "青岛胜利浮山加气站充电站",
		"STATYPE": null,
		"STATYPENAME": null,
		"VISIBLE": "1",
		"STAOPSTATE": "3",
		"STAOPSTATENAME": "运营中",
		"WGS84LNG": 120.433883,
		"WGS84LAT": 36.113298,
		"STAADDR": "山东省青岛市市北区辽阳西路419号^辽阳西路428号",
		"CDCS": 0
	}, {
		"STAPILLZLCOUNT": 2,
		"STAPILLJLDXCOUNT": 6,
		"ID": "cc723db8-63ce-4ec9-852a-d0222bf4e8d9",
		"CODE": "3702120262",
		"NAME": "青岛崂山北宅街道办充电站",
		"STATYPE": null,
		"STATYPENAME": null,
		"VISIBLE": "1",
		"STAOPSTATE": "3",
		"STAOPSTATENAME": "运营中",
		"WGS84LNG": 120.538936,
		"WGS84LAT": 36.224341,
		"STAADDR": "山东省青岛市崂山区^松岭路396号",
		"CDCS": 0
	}, {
		"STAPILLZLCOUNT": 2,
		"STAPILLJLDXCOUNT": 1,
		"ID": "49bc003a-f7c7-4eb8-b140-5dfb0ed3bf6c",
		"CODE": "3702130328",
		"NAME": "青岛万科生态城充电站",
		"STATYPE": null,
		"STATYPENAME": null,
		"VISIBLE": "1",
		"STAOPSTATE": "3",
		"STAOPSTATENAME": "运营中",
		"WGS84LNG": 120.492237,
		"WGS84LAT": 36.186016,
		"STAADDR": "山东省青岛市李沧区^金水路181号",
		"CDCS": 0
	}, {
		"STAPILLZLCOUNT": 6,
		"STAPILLJLDXCOUNT": 2,
		"ID": "6ea267ad-03e7-40a6-8ca5-2309f763c01d",
		"CODE": "3702130240",
		"NAME": "青岛漫玉湾市场充电站",
		"STATYPE": null,
		"STATYPENAME": null,
		"VISIBLE": "1",
		"STAOPSTATE": "3",
		"STAOPSTATENAME": "运营中",
		"WGS84LNG": 120.478120,
		"WGS84LAT": 36.177248,
		"STAADDR": "山东省青岛市李沧区^九水东路352号",
		"CDCS": 0
	}, {
		"STAPILLZLCOUNT": 3,
		"STAPILLJLDXCOUNT": 0,
		"ID": "dc128667-4577-45d1-811c-4110978304b3",
		"CODE": "3702120442",
		"NAME": "青岛丽达购物中心二期充电站",
		"STATYPE": null,
		"STATYPENAME": null,
		"VISIBLE": "1",
		"STAOPSTATE": "3",
		"STAOPSTATENAME": "运营中",
		"WGS84LNG": 120.477101,
		"WGS84LAT": 36.112025,
		"STAADDR": "山东省青岛市崂山区^仙霞岭路丽达购物中心东区停车场",
		"CDCS": 0
	}, {
		"STAPILLZLCOUNT": 1,
		"STAPILLJLDXCOUNT": 4,
		"ID": "e37a0400-cdae-41fb-9b23-b88ec0563b18",
		"CODE": "3702020269",
		"NAME": "青岛海洋科学研究中心充电站",
		"STATYPE": null,
		"STATYPENAME": null,
		"VISIBLE": "1",
		"STAOPSTATE": "3",
		"STAOPSTATENAME": "运营中",
		"WGS84LNG": 120.387187,
		"WGS84LAT": 36.082186,
		"STAADDR": "山东省青岛市市南区^青岛市徐州路88号",
		"CDCS": 0
	}, {
		"STAPILLZLCOUNT": 1,
		"STAPILLJLDXCOUNT": 3,
		"ID": "6bb0a0fb-caec-4b60-bb15-6779b856af27",
		"CODE": "3702120315",
		"NAME": "青岛万里江茶博园充电站",
		"STATYPE": null,
		"STATYPENAME": null,
		"VISIBLE": "1",
		"STAOPSTATE": "3",
		"STAOPSTATENAME": "运营中",
		"WGS84LNG": 120.520956,
		"WGS84LAT": 36.195751,
		"STAADDR": "山东省青岛市崂山区^松岭路397号",
		"CDCS": 0
	}, {
		"STAPILLZLCOUNT": 1,
		"STAPILLJLDXCOUNT": 6,
		"ID": "5cda0861-5615-4f14-a044-ae75fb2c9494",
		"CODE": "3702120021",
		"NAME": "青岛世园假日酒店充电站",
		"STATYPE": null,
		"STATYPENAME": null,
		"VISIBLE": "1",
		"STAOPSTATE": "3",
		"STAOPSTATENAME": "运营中",
		"WGS84LNG": 120.522907,
		"WGS84LAT": 36.199225,
		"STAADDR": "山东省青岛市崂山区^天水路2号",
		"CDCS": 0
	}, {
		"STAPILLZLCOUNT": 1,
		"STAPILLJLDXCOUNT": 2,
		"ID": "ae7ce75d-b53b-46f9-8012-d6b41f3029e0",
		"CODE": "3702850058",
		"NAME": "青岛莱西市店埠镇政府充电站",
		"STATYPE": null,
		"STATYPENAME": null,
		"VISIBLE": "1",
		"STAOPSTATE": "3",
		"STAOPSTATENAME": "运营中",
		"WGS84LNG": 120.359948,
		"WGS84LAT": 36.705345,
		"STAADDR": "山东省青岛市莱西市^店埠镇政府",
		"CDCS": 0
	}, {
		"STAPILLZLCOUNT": 1,
		"STAPILLJLDXCOUNT": 4,
		"ID": "c08e41a9-9e8b-47cd-a33a-f661afc77fe3",
		"CODE": "3702140262",
		"NAME": "青岛红岛治安大队充电站",
		"STATYPE": null,
		"STATYPENAME": null,
		"VISIBLE": "1",
		"STAOPSTATE": "3",
		"STAOPSTATENAME": "运营中",
		"WGS84LNG": 120.270172,
		"WGS84LAT": 36.223795,
		"STAADDR": "山东省青岛市城阳区^高新区红岛街道办事处",
		"CDCS": 0
	}, {
		"STAPILLZLCOUNT": 4,
		"STAPILLJLDXCOUNT": 12,
		"ID": "2aa800ed-3bdc-4366-9911-d0c6c14913f2",
		"CODE": "3702110145",
		"NAME": "山东高速西海岸智慧物流产业园物流充电站",
		"STATYPE": null,
		"STATYPENAME": null,
		"VISIBLE": "1",
		"STAOPSTATE": "3",
		"STAOPSTATENAME": "运营中",
		"WGS84LNG": 120.163058,
		"WGS84LAT": 36.041663,
		"STAADDR": "山东省青岛市黄岛区S398(淮河西路)^S398(淮河西路)",
		"CDCS": 0
	}, {
		"STAPILLZLCOUNT": 1,
		"STAPILLJLDXCOUNT": 0,
		"ID": "78c2dab1-885e-41fc-bf77-462e16bf63c4",
		"CODE": "3702820047",
		"NAME": "青岛即墨蓝色硅谷公交充电站",
		"STATYPE": null,
		"STATYPENAME": null,
		"VISIBLE": "1",
		"STAOPSTATE": "3",
		"STAOPSTATENAME": "运营中",
		"WGS84LNG": 120.684519,
		"WGS84LAT": 36.354606,
		"STAADDR": "山东省青岛市即墨市创业南路^创业南路",
		"CDCS": 0
	}, {
		"STAPILLZLCOUNT": 2,
		"STAPILLJLDXCOUNT": 2,
		"ID": "1ac2ae4f-94c6-451e-a2a6-0917c8634d51",
		"CODE": "3702810080",
		"NAME": "青岛铺集卫生院充电站",
		"STATYPE": null,
		"STATYPENAME": null,
		"VISIBLE": "1",
		"STAOPSTATE": "3",
		"STAOPSTATENAME": "运营中",
		"WGS84LNG": 119.733553,
		"WGS84LAT": 36.132656,
		"STAADDR": "山东省青岛市胶州市^铺集镇卫生院",
		"CDCS": 0
	}, {
		"STAPILLZLCOUNT": 0,
		"STAPILLJLDXCOUNT": 8,
		"ID": "d84985af-3878-4fd9-8c3f-f192188e654b",
		"CODE": "3702120015",
		"NAME": "青岛崂山文化中心充电站",
		"STATYPE": null,
		"STATYPENAME": null,
		"VISIBLE": "1",
		"STAOPSTATE": "3",
		"STAOPSTATENAME": "运营中",
		"WGS84LNG": 120.478654,
		"WGS84LAT": 36.113514,
		"STAADDR": "山东省青岛市崂山区^松岭路34号",
		"CDCS": 0
	}, {
		"STAPILLZLCOUNT": 0,
		"STAPILLJLDXCOUNT": 25,
		"ID": "ce0d03af-b921-4265-a748-6cde7e64d8f3",
		"CODE": "3702120251",
		"NAME": "青岛丽达购物中心充电站",
		"STATYPE": null,
		"STATYPENAME": null,
		"VISIBLE": "1",
		"STAOPSTATE": "3",
		"STAOPSTATENAME": "运营中",
		"WGS84LNG": 120.475493,
		"WGS84LAT": 36.110532,
		"STAADDR": "山东省青岛市崂山区^秦岭路18号",
		"CDCS": 0
	}, {
		"STAPILLZLCOUNT": 1,
		"STAPILLJLDXCOUNT": 4,
		"ID": "d675e22f-fc4b-4d53-b89d-1b6fd7e2a474",
		"CODE": "3702020276",
		"NAME": "青岛国土资源管理局充电站",
		"STATYPE": null,
		"STATYPENAME": null,
		"VISIBLE": "1",
		"STAOPSTATE": "3",
		"STAOPSTATENAME": "运营中",
		"WGS84LNG": 120.314404,
		"WGS84LAT": 36.060248,
		"STAADDR": "山东省青岛市市南区^巫峡路6号",
		"CDCS": 0
	}, {
		"STAPILLZLCOUNT": 17,
		"STAPILLJLDXCOUNT": 0,
		"ID": "7f45f601-66e6-4a70-8d98-6811b7c743b1",
		"CODE": "3702810067",
		"NAME": "青岛开发区巴士王台枢纽站充电站",
		"STATYPE": null,
		"STATYPENAME": null,
		"VISIBLE": "1",
		"STAOPSTATE": "3",
		"STAOPSTATENAME": "运营中",
		"WGS84LNG": 119.998680,
		"WGS84LAT": 36.088929,
		"STAADDR": "山东省青岛市黄岛区^环台北路（S328省道）",
		"CDCS": 0
	}, {
		"STAPILLZLCOUNT": 2,
		"STAPILLJLDXCOUNT": 6,
		"ID": "10a87443-9ac5-4123-9ad2-09db5be5f2cd",
		"CODE": "3702130307",
		"NAME": "青岛地铁火车北站充电站",
		"STATYPE": null,
		"STATYPENAME": null,
		"VISIBLE": "1",
		"STAOPSTATE": "3",
		"STAOPSTATENAME": "运营中",
		"WGS84LNG": 120.383077,
		"WGS84LAT": 36.176249,
		"STAADDR": "山东省青岛市李沧区^青岛火车北站地下停车场B区03车位",
		"CDCS": 0
	}, {
		"STAPILLZLCOUNT": 1,
		"STAPILLJLDXCOUNT": 6,
		"ID": "44a4d6b9-2999-4be7-9bcd-96a6721b4003",
		"CODE": "3702130249",
		"NAME": "青岛钢铁集团充电站",
		"STATYPE": null,
		"STATYPENAME": null,
		"VISIBLE": "1",
		"STAOPSTATE": "3",
		"STAOPSTATENAME": "运营中",
		"WGS84LNG": 120.398103,
		"WGS84LAT": 36.221402,
		"STAADDR": "山东省青岛市李沧区^遵义路",
		"CDCS": 0
	}, {
		"STAPILLZLCOUNT": 0,
		"STAPILLJLDXCOUNT": 5,
		"ID": "45a894d6-d23d-4491-8846-1824cff28fba",
		"CODE": "3702130298",
		"NAME": "青岛兴城路街道办充电站",
		"STATYPE": null,
		"STATYPENAME": null,
		"VISIBLE": "1",
		"STAOPSTATE": "3",
		"STAOPSTATENAME": "运营中",
		"WGS84LNG": 120.392847,
		"WGS84LAT": 36.198831,
		"STAADDR": "山东省青岛市李沧区^兴城路9号",
		"CDCS": 0
	}, {
		"STAPILLZLCOUNT": 1,
		"STAPILLJLDXCOUNT": 6,
		"ID": "785ebdad-0447-4c5b-ad9d-a5db70ecf709",
		"CODE": "3702130304",
		"NAME": "青岛福林万家小区充电站",
		"STATYPE": null,
		"STATYPENAME": null,
		"VISIBLE": "1",
		"STAOPSTATE": "3",
		"STAOPSTATENAME": "运营中",
		"WGS84LNG": 120.443845,
		"WGS84LAT": 36.149430,
		"STAADDR": "山东省青岛市李沧区^青山路263号",
		"CDCS": 0
	}, {
		"STAPILLZLCOUNT": 1,
		"STAPILLJLDXCOUNT": 3,
		"ID": "e6e6331a-0d02-45c5-b4ad-4af9c85c0d64",
		"CODE": "3702110115",
		"NAME": "青岛光谷充电站",
		"STATYPE": null,
		"STATYPENAME": null,
		"VISIBLE": "1",
		"STAOPSTATE": "3",
		"STAOPSTATENAME": "运营中",
		"WGS84LNG": 120.166690,
		"WGS84LAT": 35.956316,
		"STAADDR": "山东省青岛市黄岛区^峨眉山路与富春江路交叉口",
		"CDCS": 0
	}, {
		"STAPILLZLCOUNT": 2,
		"STAPILLJLDXCOUNT": 0,
		"ID": "edaf69df-3459-42cf-bdf4-1b8430844034",
		"CODE": "3702120470",
		"NAME": "特来电充电弓测试专用站",
		"STATYPE": null,
		"STATYPENAME": null,
		"VISIBLE": "1",
		"STAOPSTATE": "3",
		"STAOPSTATENAME": "运营中",
		"WGS84LNG": 120.511078,
		"WGS84LAT": 36.178033,
		"STAADDR": "山东省青岛市崂山区^松岭路336号",
		"CDCS": 0
	}, {
		"STAPILLZLCOUNT": 2,
		"STAPILLJLDXCOUNT": 12,
		"ID": "f38fcd40-22d6-467b-91c6-568e09c497b4",
		"CODE": "3702120377",
		"NAME": "青岛海韵东方充电站",
		"STATYPE": null,
		"STATYPENAME": null,
		"VISIBLE": "1",
		"STAOPSTATE": "3",
		"STAOPSTATENAME": "运营中",
		"WGS84LNG": 120.476437,
		"WGS84LAT": 36.104109,
		"STAADDR": "山东省青岛市崂山区^秦岭路15号",
		"CDCS": 0
	}, {
		"STAPILLZLCOUNT": 3,
		"STAPILLJLDXCOUNT": 2,
		"ID": "6f812a9c-f35d-48dc-83be-a5b1e015c6e9",
		"CODE": "3702110189",
		"NAME": "青岛深蓝星商务酒店充电站",
		"STATYPE": null,
		"STATYPENAME": null,
		"VISIBLE": "1",
		"STAOPSTATE": "3",
		"STAOPSTATENAME": "运营中",
		"WGS84LNG": 120.016101,
		"WGS84LAT": 35.891174,
		"STAADDR": "山东省青岛市黄岛区^水灵山路87号",
		"CDCS": 0
	}, {
		"STAPILLZLCOUNT": 12,
		"STAPILLJLDXCOUNT": 0,
		"ID": "6d76ff37-d2af-40cb-a465-59593bce2538",
		"CODE": "3702110052",
		"NAME": "青岛开发区巴士红石崖公交充电站",
		"STATYPE": null,
		"STATYPENAME": null,
		"VISIBLE": "1",
		"STAOPSTATE": "3",
		"STAOPSTATENAME": "运营中",
		"WGS84LNG": 120.117246,
		"WGS84LAT": 36.100924,
		"STAADDR": "山东省青岛市黄岛区^红柳河路650号",
		"CDCS": 0
	}, {
		"STAPILLZLCOUNT": 8,
		"STAPILLJLDXCOUNT": 6,
		"ID": "4fb56ed9-f897-4951-a7d8-5ab8fc3f9623",
		"CODE": "3702120269",
		"NAME": "青岛海尔集团餐饮充电站",
		"STATYPE": null,
		"STATYPENAME": null,
		"VISIBLE": "1",
		"STAOPSTATE": "3",
		"STAOPSTATENAME": "运营中",
		"WGS84LNG": 120.429248,
		"WGS84LAT": 36.141207,
		"STAADDR": "山东省青岛市崂山区^海尔路1号",
		"CDCS": 0
	}, {
		"STAPILLZLCOUNT": 0,
		"STAPILLJLDXCOUNT": 2,
		"ID": "d9d06703-cd51-46fd-ba83-9941909dee12",
		"CODE": "3702820018",
		"NAME": "青岛国家深海基地充电站",
		"STATYPE": null,
		"STATYPENAME": null,
		"VISIBLE": "1",
		"STAOPSTATE": "3",
		"STAOPSTATENAME": "运营中",
		"WGS84LNG": 120.742896,
		"WGS84LAT": 36.343055,
		"STAADDR": "山东省青岛市即墨市^蓝色硅谷核心区问海路",
		"CDCS": 0
	}, {
		"STAPILLZLCOUNT": 1,
		"STAPILLJLDXCOUNT": 2,
		"ID": "9c480ff4-cc1a-44e5-b257-0f99d34dbb1d",
		"CODE": "3702110078",
		"NAME": "青岛黄岛龙湖原山充电站",
		"STATYPE": null,
		"STATYPENAME": null,
		"VISIBLE": "1",
		"STAOPSTATE": "3",
		"STAOPSTATENAME": "运营中",
		"WGS84LNG": 120.110656,
		"WGS84LAT": 36.002965,
		"STAADDR": "山东省青岛市黄岛区^前湾港路889号",
		"CDCS": 0
	}, {
		"STAPILLZLCOUNT": 1,
		"STAPILLJLDXCOUNT": 3,
		"ID": "7a3495fb-638f-4beb-a595-801f98bf1967",
		"CODE": "3702020297",
		"NAME": "青岛自由路汽车美饰充电站",
		"STATYPE": null,
		"STATYPENAME": null,
		"VISIBLE": "1",
		"STAOPSTATE": "3",
		"STAOPSTATENAME": "运营中",
		"WGS84LNG": 120.420256,
		"WGS84LAT": 36.070041,
		"STAADDR": "山东省青岛市市南区^嘉义路3号",
		"CDCS": 0
	}, {
		"STAPILLZLCOUNT": 2,
		"STAPILLJLDXCOUNT": 6,
		"ID": "7c738460-991a-4109-add7-dfe8ce4ad693",
		"CODE": "3702140390",
		"NAME": "青岛星河湾充电站",
		"STATYPE": null,
		"STATYPENAME": null,
		"VISIBLE": "1",
		"STAOPSTATE": "3",
		"STAOPSTATENAME": "运营中",
		"WGS84LNG": 120.350388,
		"WGS84LAT": 36.236398,
		"STAADDR": "山东省青岛市城阳区^丰海路51号",
		"CDCS": 0
	}, {
		"STAPILLZLCOUNT": 1,
		"STAPILLJLDXCOUNT": 1,
		"ID": "929c13d1-88c0-4369-ba44-b0eab8084c2b",
		"CODE": "3702140377",
		"NAME": "青岛泰泓轨道装备充电站",
		"STATYPE": null,
		"STATYPENAME": null,
		"VISIBLE": "1",
		"STAOPSTATE": "3",
		"STAOPSTATENAME": "运营中",
		"WGS84LNG": 120.335129,
		"WGS84LAT": 36.338278,
		"STAADDR": "山东省青岛市城阳区^棘洪滩街道棘洪滩街道南万社区",
		"CDCS": 0
	}, {
		"STAPILLZLCOUNT": 1,
		"STAPILLJLDXCOUNT": 2,
		"ID": "981c7469-06eb-4a53-93b9-d9d9d169d99b",
		"CODE": "3702810031",
		"NAME": "青岛胶州天翔汽车充电站",
		"STATYPE": null,
		"STATYPENAME": null,
		"VISIBLE": "1",
		"STAOPSTATE": "3",
		"STAOPSTATENAME": "运营中",
		"WGS84LNG": 119.977462,
		"WGS84LAT": 36.273387,
		"STAADDR": "山东省青岛市胶州市^柳州路南端",
		"CDCS": 0
	}, {
		"STAPILLZLCOUNT": 7,
		"STAPILLJLDXCOUNT": 0,
		"ID": "055c58a7-5697-49a2-be9e-cfa430e50b18",
		"CODE": "3702110021",
		"NAME": "青岛西海岸公交大村充电站",
		"STATYPE": null,
		"STATYPENAME": null,
		"VISIBLE": "1",
		"STAOPSTATE": "3",
		"STAOPSTATENAME": "运营中",
		"WGS84LNG": 119.736631,
		"WGS84LAT": 35.802403,
		"STAADDR": "山东省青岛市黄岛区^藏马山路大村换乘站",
		"CDCS": 0
	}, {
		"STAPILLZLCOUNT": 2,
		"STAPILLJLDXCOUNT": 8,
		"ID": "968bd61c-5b7d-4e86-bb00-440ce1bf7ab4",
		"CODE": "3702820031",
		"NAME": "青岛华盛太阳能农庄充电站",
		"STATYPE": null,
		"STATYPENAME": null,
		"VISIBLE": "1",
		"STAOPSTATE": "3",
		"STAOPSTATENAME": "运营中",
		"WGS84LNG": 120.362516,
		"WGS84LAT": 36.435712,
		"STAADDR": "山东省青岛市即墨市^营王路普东",
		"CDCS": 0
	}, {
		"STAPILLZLCOUNT": 0,
		"STAPILLJLDXCOUNT": 7,
		"ID": "cab471be-dd83-44a6-884c-587b3a5f27d5",
		"CODE": "3702020339",
		"NAME": "青岛金海立体车库充电站",
		"STATYPE": null,
		"STATYPENAME": null,
		"VISIBLE": "1",
		"STAOPSTATE": "3",
		"STAOPSTATENAME": "运营中",
		"WGS84LNG": 120.320086,
		"WGS84LAT": 36.071844,
		"STAADDR": "山东省青岛市市南区^泰安路14号",
		"CDCS": 0
	}, {
		"STAPILLZLCOUNT": 2,
		"STAPILLJLDXCOUNT": 8,
		"ID": "fbacc033-2c8f-4f23-8678-19ffe548267a",
		"CODE": "3702850032",
		"NAME": "青岛莱西豪邦度假酒店充电站",
		"STATYPE": null,
		"STATYPENAME": null,
		"VISIBLE": "1",
		"STAOPSTATE": "3",
		"STAOPSTATENAME": "运营中",
		"WGS84LNG": 120.538726,
		"WGS84LAT": 36.862435,
		"STAADDR": "山东省青岛市莱西市^文化东路13号",
		"CDCS": 0
	}, {
		"STAPILLZLCOUNT": 2,
		"STAPILLJLDXCOUNT": 0,
		"ID": "9e5795c7-620a-4872-b779-0f6b5d2fc735",
		"CODE": "3702030077",
		"NAME": "青岛胜利长沙路加气站充电站",
		"STATYPE": null,
		"STATYPENAME": null,
		"VISIBLE": "1",
		"STAOPSTATE": "3",
		"STAOPSTATENAME": "运营中",
		"WGS84LNG": 120.388700,
		"WGS84LAT": 36.139587,
		"STAADDR": "山东省青岛市市北区^长沙路89号",
		"CDCS": 0
	}, {
		"STAPILLZLCOUNT": 1,
		"STAPILLJLDXCOUNT": 0,
		"ID": "9ebf3ce0-1080-4b67-9a61-b0ac9056d724",
		"CODE": "3702120453",
		"NAME": "青岛崂山民俗文化村充电站",
		"STATYPE": null,
		"STATYPENAME": null,
		"VISIBLE": "1",
		"STAOPSTATE": "3",
		"STAOPSTATENAME": "运营中",
		"WGS84LNG": 120.570622,
		"WGS84LAT": 36.144538,
		"STAADDR": "山东省青岛市崂山区^崂山沙子口百雀林风景区内（崂山路286号西登瀛民俗风情园内）",
		"CDCS": 0
	}, {
		"STAPILLZLCOUNT": 0,
		"STAPILLJLDXCOUNT": 10,
		"ID": "eb872800-1e14-447f-b154-1962c26ac9b8",
		"CODE": "3702110171",
		"NAME": "青岛龙湾东充电站",
		"STATYPE": null,
		"STATYPENAME": null,
		"VISIBLE": "1",
		"STAOPSTATE": "3",
		"STAOPSTATENAME": "运营中",
		"WGS84LNG": 119.911114,
		"WGS84LAT": 35.669280,
		"STAADDR": "山东省青岛市黄岛区^登台路188号",
		"CDCS": 0
	}, {
		"STAPILLZLCOUNT": 1,
		"STAPILLJLDXCOUNT": 4,
		"ID": "c37cdb20-4f0b-4736-9c46-e264100560bb",
		"CODE": "3702120390",
		"NAME": "青岛中国海洋大学行远楼西充电站",
		"STATYPE": null,
		"STATYPENAME": null,
		"VISIBLE": "1",
		"STAOPSTATE": "3",
		"STAOPSTATENAME": "运营中",
		"WGS84LNG": 120.499702,
		"WGS84LAT": 36.166186,
		"STAADDR": "山东省青岛市崂山区海大路^松岭路238号",
		"CDCS": 0
	}, {
		"STAPILLZLCOUNT": 1,
		"STAPILLJLDXCOUNT": 2,
		"ID": "be659ee9-3169-4fcd-9c38-929a2c7cc070",
		"CODE": "3702820019",
		"NAME": "青岛即墨市政府办公楼充电站",
		"STATYPE": null,
		"STATYPENAME": null,
		"VISIBLE": "1",
		"STAOPSTATE": "3",
		"STAOPSTATENAME": "运营中",
		"WGS84LNG": 120.453348,
		"WGS84LAT": 36.395462,
		"STAADDR": "山东省青岛市即墨市^振华街140号",
		"CDCS": 0
	}, {
		"STAPILLZLCOUNT": 1,
		"STAPILLJLDXCOUNT": 5,
		"ID": "41e3e8f8-8836-44b3-8bfa-869d605f8e57",
		"CODE": "3702140357",
		"NAME": "青岛日凯太阳能充电站",
		"STATYPE": null,
		"STATYPENAME": null,
		"VISIBLE": "1",
		"STAOPSTATE": "3",
		"STAOPSTATENAME": "运营中",
		"WGS84LNG": 120.255760,
		"WGS84LAT": 36.315141,
		"STAADDR": "山东省青岛市城阳区^S309日凯太阳能",
		"CDCS": 0
	}, {
		"STAPILLZLCOUNT": 1,
		"STAPILLJLDXCOUNT": 0,
		"ID": "87125ea2-a84a-4d66-9815-318ce387a6ba",
		"CODE": "3702020308",
		"NAME": "青岛军培中心南院充电站",
		"STATYPE": null,
		"STATYPENAME": null,
		"VISIBLE": "1",
		"STAOPSTATE": "3",
		"STAOPSTATENAME": "运营中",
		"WGS84LNG": 120.317167,
		"WGS84LAT": 36.062908,
		"STAADDR": "山东省青岛市市南区^西陵峡三路3号",
		"CDCS": 0
	}, {
		"STAPILLZLCOUNT": 1,
		"STAPILLJLDXCOUNT": 2,
		"ID": "9868ad5a-142f-42b5-97c6-766f406710d3",
		"CODE": "3702140333",
		"NAME": "青岛华东木业充电站",
		"STATYPE": null,
		"STATYPENAME": null,
		"VISIBLE": "1",
		"STAOPSTATE": "3",
		"STAOPSTATENAME": "运营中",
		"WGS84LNG": 120.453494,
		"WGS84LAT": 36.243152,
		"STAADDR": "山东省青岛市城阳区^王沙路53号",
		"CDCS": 0
	}, {
		"STAPILLZLCOUNT": 1,
		"STAPILLJLDXCOUNT": 12,
		"ID": "c574661b-7035-48e2-8e7a-7a9c9f84b585",
		"CODE": "3702030095",
		"NAME": "青岛苏尚汽车城充电站",
		"STATYPE": null,
		"STATYPENAME": null,
		"VISIBLE": "1",
		"STAOPSTATE": "3",
		"STAOPSTATENAME": "运营中",
		"WGS84LNG": 120.393228,
		"WGS84LAT": 36.134352,
		"STAADDR": "山东省青岛市市北区^南昌路197号",
		"CDCS": 0
	}, {
		"STAPILLZLCOUNT": 1,
		"STAPILLJLDXCOUNT": 0,
		"ID": "d41999e5-7b86-459c-8916-aefe9a353927",
		"CODE": "3702030120",
		"NAME": "青岛德福昇充电站",
		"STATYPE": null,
		"STATYPENAME": null,
		"VISIBLE": "1",
		"STAOPSTATE": "3",
		"STAOPSTATENAME": "运营中",
		"WGS84LNG": 120.340041,
		"WGS84LAT": 36.091412,
		"STAADDR": "山东省青岛市市北区^青海路30号",
		"CDCS": 0
	}, {
		"STAPILLZLCOUNT": 1,
		"STAPILLJLDXCOUNT": 4,
		"ID": "8ad9fd4c-d066-45a7-8b3b-1543cf9ec5d7",
		"CODE": "3702110113",
		"NAME": "青岛黄岛瑞源集团充电站",
		"STATYPE": null,
		"STATYPENAME": null,
		"VISIBLE": "1",
		"STAOPSTATE": "3",
		"STAOPSTATENAME": "运营中",
		"WGS84LNG": 120.192653,
		"WGS84LAT": 35.955144,
		"STAADDR": "山东省青岛市黄岛区^珠江路1557号",
		"CDCS": 0
	}, {
		"STAPILLZLCOUNT": 3,
		"STAPILLJLDXCOUNT": 0,
		"ID": "48dca3cd-152c-40fb-9cc1-5bace8e20afc",
		"CODE": "3702120446",
		"NAME": "青岛运泰酒店充电站",
		"STATYPE": null,
		"STATYPENAME": null,
		"VISIBLE": "1",
		"STAOPSTATE": "3",
		"STAOPSTATENAME": "运营中",
		"WGS84LNG": 120.480863,
		"WGS84LAT": 36.117191,
		"STAADDR": "山东省青岛市崂山区科大支路^银川东路55号",
		"CDCS": 0
	}, {
		"STAPILLZLCOUNT": 1,
		"STAPILLJLDXCOUNT": 2,
		"ID": "4113c9a6-835c-4d1d-b69e-77e7d514358e",
		"CODE": "3702820059",
		"NAME": "青岛北洋食品充电站",
		"STATYPE": null,
		"STATYPENAME": null,
		"VISIBLE": "1",
		"STAOPSTATE": "3",
		"STAOPSTATENAME": "运营中",
		"WGS84LNG": 120.390595,
		"WGS84LAT": 36.352811,
		"STAADDR": "山东省青岛市即墨市^通济新区由和一路28号",
		"CDCS": 0
	}, {
		"STAPILLZLCOUNT": 1,
		"STAPILLJLDXCOUNT": 4,
		"ID": "d9216208-c28a-49b2-8789-fa1089b7b589",
		"CODE": "3702130305",
		"NAME": "青岛福林万家10号门充电站",
		"STATYPE": null,
		"STATYPENAME": null,
		"VISIBLE": "1",
		"STAOPSTATE": "3",
		"STAOPSTATENAME": "运营中",
		"WGS84LNG": 120.444236,
		"WGS84LAT": 36.154702,
		"STAADDR": "山东省青岛市李沧区^华楼山路265-88",
		"CDCS": 0
	}, {
		"STAPILLZLCOUNT": 4,
		"STAPILLJLDXCOUNT": 0,
		"ID": "e5176160-21c1-4095-b29e-c1cdfd5b3c5c",
		"CODE": "3702110196",
		"NAME": "灵山卫二期真情巴士充电站",
		"STATYPE": null,
		"STATYPENAME": null,
		"VISIBLE": "1",
		"STAOPSTATE": "3",
		"STAOPSTATENAME": "运营中",
		"WGS84LNG": 120.132241,
		"WGS84LAT": 35.923632,
		"STAADDR": "山东省青岛市黄岛区^滨海大",
		"CDCS": 0
	}, {
		"STAPILLZLCOUNT": 1,
		"STAPILLJLDXCOUNT": 2,
		"ID": "9e427dc8-c37e-407b-949a-4f92812583ad",
		"CODE": "3702110123",
		"NAME": "青岛黄海学院充电站",
		"STATYPE": null,
		"STATYPENAME": null,
		"VISIBLE": "1",
		"STAOPSTATE": "3",
		"STAOPSTATENAME": "运营中",
		"WGS84LNG": 120.119424,
		"WGS84LAT": 35.933979,
		"STAADDR": "山东省青岛市黄岛区^灵山卫灵海路3111号",
		"CDCS": 0
	}, {
		"STAPILLZLCOUNT": 2,
		"STAPILLJLDXCOUNT": 3,
		"ID": "3bb632c0-4ccc-49d9-b6d1-f3e3a37b789a",
		"CODE": "3702110150",
		"NAME": "青岛卧鹏街道综合文化站充电站",
		"STATYPE": null,
		"STATYPENAME": null,
		"VISIBLE": "1",
		"STAOPSTATE": "3",
		"STAOPSTATENAME": "运营中",
		"WGS84LNG": 120.214709,
		"WGS84LAT": 36.038611,
		"STAADDR": "山东省青岛市黄岛区^海南岛路163号",
		"CDCS": 0
	}, {
		"STAPILLZLCOUNT": 12,
		"STAPILLJLDXCOUNT": 5,
		"ID": "0bbb7510-1253-4dab-9961-b44460cbb210",
		"CODE": "3702820003",
		"NAME": "青岛华骏投资集团充电站",
		"STATYPE": null,
		"STATYPENAME": null,
		"VISIBLE": "1",
		"STAOPSTATE": "3",
		"STAOPSTATENAME": "运营中",
		"WGS84LNG": 120.303302,
		"WGS84LAT": 36.366817,
		"STAADDR": "山东省青岛市即墨市^南泉镇",
		"CDCS": 0
	}, {
		"STAPILLZLCOUNT": 2,
		"STAPILLJLDXCOUNT": 0,
		"ID": "d368539b-5472-449b-9fca-c4a3c0dca386",
		"CODE": "3702030115",
		"NAME": "青岛天亿通二期充电站",
		"STATYPE": null,
		"STATYPENAME": null,
		"VISIBLE": "1",
		"STAOPSTATE": "3",
		"STAOPSTATENAME": "运营中",
		"WGS84LNG": 120.345495,
		"WGS84LAT": 36.130135,
		"STAADDR": "山东省青岛市市北区^傍海南路25号",
		"CDCS": 0
	}, {
		"STAPILLZLCOUNT": 0,
		"STAPILLJLDXCOUNT": 8,
		"ID": "248725a8-8700-47cc-890e-08f1e70a786f",
		"CODE": "3702120438",
		"NAME": "青岛百果山森林公园B区充电站",
		"STATYPE": null,
		"STATYPENAME": null,
		"VISIBLE": "1",
		"STAOPSTATE": "3",
		"STAOPSTATENAME": "运营中",
		"WGS84LNG": 120.520159,
		"WGS84LAT": 36.207669,
		"STAADDR": "山东省青岛市崂山区^崂山风景区内,茶花顶东南437米",
		"CDCS": 0
	}, {
		"STAPILLZLCOUNT": 4,
		"STAPILLJLDXCOUNT": 102,
		"ID": "d2ca74e2-970c-4530-bdef-1965922cdf0a",
		"CODE": "3702120321",
		"NAME": "青岛特锐德崂山工业园2号充电站",
		"STATYPE": null,
		"STATYPENAME": null,
		"VISIBLE": "1",
		"STAOPSTATE": "3",
		"STAOPSTATENAME": "运营中",
		"WGS84LNG": 120.512872,
		"WGS84LAT": 36.179691,
		"STAADDR": "山东省青岛市崂山区^山东省青岛市崂山区",
		"CDCS": 0
	}, {
		"STAPILLZLCOUNT": 1,
		"STAPILLJLDXCOUNT": 4,
		"ID": "d353090e-22fb-4df6-9059-a54a42edea5c",
		"CODE": "3702030111",
		"NAME": "青岛城建嘉定路充电站",
		"STATYPE": null,
		"STATYPENAME": null,
		"VISIBLE": "1",
		"STAOPSTATE": "3",
		"STAOPSTATENAME": "运营中",
		"WGS84LNG": 120.363164,
		"WGS84LAT": 36.116793,
		"STAADDR": "山东省青岛市市北区^嘉定路15号",
		"CDCS": 0
	}, {
		"STAPILLZLCOUNT": 1,
		"STAPILLJLDXCOUNT": 6,
		"ID": "d354d014-3e2e-42cb-b924-bc3c5791d0ae",
		"CODE": "3702110040",
		"NAME": "青岛黄岛安监局充电站",
		"STATYPE": null,
		"STATYPENAME": null,
		"VISIBLE": "1",
		"STAOPSTATE": "3",
		"STAOPSTATENAME": "运营中",
		"WGS84LNG": 120.186170,
		"WGS84LAT": 35.979763,
		"STAADDR": "山东省青岛市黄岛区^太行山路336号",
		"CDCS": 0
	}, {
		"STAPILLZLCOUNT": 1,
		"STAPILLJLDXCOUNT": 4,
		"ID": "d9b7a0c9-1aa6-4589-a73b-a4da04dd8110",
		"CODE": "3702110140",
		"NAME": "青岛黄岛城管局充电站",
		"STATYPE": null,
		"STATYPENAME": null,
		"VISIBLE": "1",
		"STAOPSTATE": "3",
		"STAOPSTATENAME": "运营中",
		"WGS84LNG": 120.001205,
		"WGS84LAT": 35.876411,
		"STAADDR": "山东省青岛市黄岛区^珠海路34号",
		"CDCS": 0
	}, {
		"STAPILLZLCOUNT": 2,
		"STAPILLJLDXCOUNT": 6,
		"ID": "2963d8e1-9707-4741-84b7-eab603b9be21",
		"CODE": "3702140264",
		"NAME": "青岛惜福镇农商行充电站",
		"STATYPE": null,
		"STATYPENAME": null,
		"VISIBLE": "1",
		"STAOPSTATE": "3",
		"STAOPSTATENAME": "运营中",
		"WGS84LNG": 120.495521,
		"WGS84LAT": 36.317997,
		"STAADDR": "山东省青岛市城阳区^S214",
		"CDCS": 0
	}, {
		"STAPILLZLCOUNT": 1,
		"STAPILLJLDXCOUNT": 4,
		"ID": "6a31b1c6-31fb-4e33-9462-562ac4a83ebe",
		"CODE": "3702120274",
		"NAME": "青岛王哥庄街道办充电站",
		"STATYPE": null,
		"STATYPENAME": null,
		"VISIBLE": "1",
		"STAOPSTATE": "3",
		"STAOPSTATENAME": "运营中",
		"WGS84LNG": 120.647859,
		"WGS84LAT": 36.277057,
		"STAADDR": "山东省青岛市崂山区^王哥庄街道办事处",
		"CDCS": 0
	}, {
		"STAPILLZLCOUNT": 7,
		"STAPILLJLDXCOUNT": 20,
		"ID": "63f0597e-2a46-4c79-91b5-5d826aa0d6ae",
		"CODE": "3702110048",
		"NAME": "青岛海尔黄岛厂区充电站",
		"STATYPE": null,
		"STATYPENAME": null,
		"VISIBLE": "1",
		"STAOPSTATE": "3",
		"STAOPSTATENAME": "运营中",
		"WGS84LNG": 120.147639,
		"WGS84LAT": 36.004778,
		"STAADDR": "山东省青岛市黄岛区^前港湾路236号",
		"CDCS": 0
	}, {
		"STAPILLZLCOUNT": 1,
		"STAPILLJLDXCOUNT": 6,
		"ID": "91356dc1-8148-41b7-b2b0-3ef26956a583",
		"CODE": "3702810069",
		"NAME": "青岛润嘉新能源汽车成充电站B站",
		"STATYPE": null,
		"STATYPENAME": null,
		"VISIBLE": "1",
		"STAOPSTATE": "3",
		"STAOPSTATENAME": "运营中",
		"WGS84LNG": 119.972259,
		"WGS84LAT": 36.271786,
		"STAADDR": "山东省青岛市胶州市^胶州市扬州西路润嘉新能源汽车城",
		"CDCS": 0
	}, {
		"STAPILLZLCOUNT": 4,
		"STAPILLJLDXCOUNT": 0,
		"ID": "3150d321-19c8-4363-8c11-653594f769d4",
		"CODE": "3702110025",
		"NAME": "青岛西海岸公交琅琊镇充电站",
		"STATYPE": null,
		"STATYPENAME": null,
		"VISIBLE": "1",
		"STAOPSTATE": "3",
		"STAOPSTATENAME": "运营中",
		"WGS84LNG": 119.855909,
		"WGS84LAT": 35.694840,
		"STAADDR": "山东省青岛市黄岛区^琅琊镇",
		"CDCS": 0
	}, {
		"STAPILLZLCOUNT": 2,
		"STAPILLJLDXCOUNT": 5,
		"ID": "9db44309-da47-41d7-bbfa-e0565ea21a11",
		"CODE": "3702110132",
		"NAME": "青岛名嘉国际充电站",
		"STATYPE": null,
		"STATYPENAME": null,
		"VISIBLE": "1",
		"STAOPSTATE": "3",
		"STAOPSTATENAME": "运营中",
		"WGS84LNG": 120.194689,
		"WGS84LAT": 35.951166,
		"STAADDR": "山东省青岛市黄岛区^庐山路118",
		"CDCS": 0
	}, {
		"STAPILLZLCOUNT": 6,
		"STAPILLJLDXCOUNT": 5,
		"ID": "065c5ce1-017a-4da4-9eed-e86c4b10687f",
		"CODE": "3702140292",
		"NAME": "青岛国家广告产业园B充电站",
		"STATYPE": null,
		"STATYPENAME": null,
		"VISIBLE": "1",
		"STAOPSTATE": "3",
		"STAOPSTATENAME": "运营中",
		"WGS84LNG": 120.409099,
		"WGS84LAT": 36.294797,
		"STAADDR": "山东省青岛市城阳区^兴阳路与长城路交汇处",
		"CDCS": 0
	}, {
		"STAPILLZLCOUNT": 1,
		"STAPILLJLDXCOUNT": 19,
		"ID": "fc8f6444-c7cd-443a-b0c9-32c74327dd60",
		"CODE": "3702120252",
		"NAME": "青岛特来电科技馆演示充电站",
		"STATYPE": null,
		"STATYPENAME": null,
		"VISIBLE": "1",
		"STAOPSTATE": "3",
		"STAOPSTATENAME": "运营中",
		"WGS84LNG": 120.510880,
		"WGS84LAT": 36.178741,
		"STAADDR": "山东省青岛市崂山区^松岭路336号青岛特来电新能源有限公司",
		"CDCS": 0
	}, {
		"STAPILLZLCOUNT": 0,
		"STAPILLJLDXCOUNT": 13,
		"ID": "47549850-f434-438c-9b27-84bc0cdb9314",
		"CODE": "3702110184",
		"NAME": "青岛泊里镇管区充电站",
		"STATYPE": null,
		"STATYPENAME": null,
		"VISIBLE": "1",
		"STAOPSTATE": "3",
		"STAOPSTATENAME": "运营中",
		"WGS84LNG": 119.794768,
		"WGS84LAT": 35.710388,
		"STAADDR": "山东省青岛市黄岛区^海泊一路381号",
		"CDCS": 0
	}, {
		"STAPILLZLCOUNT": 2,
		"STAPILLJLDXCOUNT": 8,
		"ID": "5c6848a2-618b-4948-8541-b4262754c36c",
		"CODE": "3702110030",
		"NAME": "青岛职业技术学院充电站",
		"STATYPE": null,
		"STATYPENAME": null,
		"VISIBLE": "1",
		"STAOPSTATE": "3",
		"STAOPSTATENAME": "运营中",
		"WGS84LNG": 120.166957,
		"WGS84LAT": 35.976231,
		"STAADDR": "山东省青岛市黄岛区^钱塘江路369号",
		"CDCS": 0
	}, {
		"STAPILLZLCOUNT": 10,
		"STAPILLJLDXCOUNT": 0,
		"ID": "3a4f20ea-7a96-4536-abb6-91531a7a006d",
		"CODE": "3702110081",
		"NAME": "青岛黄岛赵家庄公交充电站",
		"STATYPE": null,
		"STATYPENAME": null,
		"VISIBLE": "1",
		"STAOPSTATE": "3",
		"STAOPSTATENAME": "运营中",
		"WGS84LNG": 120.135085,
		"WGS84LAT": 35.978981,
		"STAADDR": "山东省青岛市黄岛区^黄岛赵家庄",
		"CDCS": 0
	}, {
		"STAPILLZLCOUNT": 3,
		"STAPILLJLDXCOUNT": 14,
		"ID": "12f5a441-ec9d-48f4-bcfd-49ae9537bd00",
		"CODE": "3702120389",
		"NAME": "青岛世园寒轩充电站",
		"STATYPE": null,
		"STATYPENAME": null,
		"VISIBLE": "1",
		"STAOPSTATE": "3",
		"STAOPSTATENAME": "运营中",
		"WGS84LNG": 120.517338,
		"WGS84LAT": 36.195060,
		"STAADDR": "山东省青岛市崂山区宁水路^松岭路395号",
		"CDCS": 0
	}, {
		"STAPILLZLCOUNT": 4,
		"STAPILLJLDXCOUNT": 18,
		"ID": "34617ca0-6213-4df6-9a71-2aca70c2245e",
		"CODE": "3702120267",
		"NAME": "青岛海尔集团白电充电站",
		"STATYPE": null,
		"STATYPENAME": null,
		"VISIBLE": "1",
		"STAOPSTATE": "3",
		"STAOPSTATENAME": "运营中",
		"WGS84LNG": 120.428803,
		"WGS84LAT": 36.137747,
		"STAADDR": "山东省青岛市崂山区^海尔路1号",
		"CDCS": 0
	}, {
		"STAPILLZLCOUNT": 0,
		"STAPILLJLDXCOUNT": 1,
		"ID": "4f9a52d0-4595-42cc-a496-b47a8aba52f2",
		"CODE": "3702820005",
		"NAME": "青岛海洋国家实验室充电站",
		"STATYPE": null,
		"STATYPENAME": null,
		"VISIBLE": "1",
		"STAOPSTATE": "3",
		"STAOPSTATENAME": "运营中",
		"WGS84LNG": 120.672290,
		"WGS84LAT": 36.348266,
		"STAADDR": "山东省青岛市即墨市^鳌山卫镇问海路1号",
		"CDCS": 0
	}, {
		"STAPILLZLCOUNT": 1,
		"STAPILLJLDXCOUNT": 6,
		"ID": "5eb5bf55-c156-4437-801d-9ee7bb5f61c6",
		"CODE": "3702120396",
		"NAME": "青岛双瑞充电站",
		"STATYPE": null,
		"STATYPENAME": null,
		"VISIBLE": "1",
		"STAOPSTATE": "3",
		"STAOPSTATENAME": "运营中",
		"WGS84LNG": 120.474486,
		"WGS84LAT": 36.147995,
		"STAADDR": "山东省青岛市崂山区^株洲路149—1号",
		"CDCS": 0
	}, {
		"STAPILLZLCOUNT": 0,
		"STAPILLJLDXCOUNT": 1,
		"ID": "7272a61d-d735-458a-b1e6-a22c3bc647fc",
		"CODE": "3702850042",
		"NAME": "青岛莱西市卢乡阁博物馆充电站",
		"STATYPE": null,
		"STATYPENAME": null,
		"VISIBLE": "1",
		"STAOPSTATE": "3",
		"STAOPSTATENAME": "运营中",
		"WGS84LNG": 120.536728,
		"WGS84LAT": 36.917066,
		"STAADDR": "山东省青岛市莱西市^南京北路与s309省道交叉口",
		"CDCS": 0
	}, {
		"STAPILLZLCOUNT": 1,
		"STAPILLJLDXCOUNT": 6,
		"ID": "831cd220-1172-465f-ac7d-80097e80ca8e",
		"CODE": "3702110074",
		"NAME": "青岛西海岸东部办公中心充电站",
		"STATYPE": null,
		"STATYPENAME": null,
		"VISIBLE": "1",
		"STAOPSTATE": "3",
		"STAOPSTATENAME": "运营中",
		"WGS84LNG": 120.206947,
		"WGS84LAT": 35.965347,
		"STAADDR": "山东省青岛市黄岛区^西海岸长江中路369号",
		"CDCS": 0
	}, {
		"STAPILLZLCOUNT": 2,
		"STAPILLJLDXCOUNT": 10,
		"ID": "996cf7b1-b49b-4cd5-893d-07082ee5d3b4",
		"CODE": "3702850035",
		"NAME": "青岛莱西格林家园小区充电站",
		"STATYPE": null,
		"STATYPENAME": null,
		"VISIBLE": "1",
		"STAOPSTATE": "3",
		"STAOPSTATENAME": "运营中",
		"WGS84LNG": 120.518836,
		"WGS84LAT": 36.880011,
		"STAADDR": "山东省青岛市莱西市^格林家园小区公共车位",
		"CDCS": 0
	}, {
		"STAPILLZLCOUNT": 1,
		"STAPILLJLDXCOUNT": 10,
		"ID": "a28b0b0f-2fdd-4ee3-b983-414b0e27d8ee",
		"CODE": "3702020287",
		"NAME": "青岛悦喜客来充电站",
		"STATYPE": null,
		"STATYPENAME": null,
		"VISIBLE": "1",
		"STAOPSTATE": "3",
		"STAOPSTATENAME": "运营中",
		"WGS84LNG": 120.326816,
		"WGS84LAT": 36.073056,
		"STAADDR": "山东省青岛市市南区^浙江路26号",
		"CDCS": 0
	}, {
		"STAPILLZLCOUNT": 1,
		"STAPILLJLDXCOUNT": 5,
		"ID": "ede771b3-b82c-4869-a9b0-1eb17313c808",
		"CODE": "3702140375",
		"NAME": "青岛景园假日酒店充电站",
		"STATYPE": null,
		"STATYPENAME": null,
		"VISIBLE": "1",
		"STAOPSTATE": "3",
		"STAOPSTATENAME": "运营中",
		"WGS84LNG": 120.405697,
		"WGS84LAT": 36.293531,
		"STAADDR": "山东省青岛市城阳区^兴阳路306号",
		"CDCS": 0
	}, {
		"STAPILLZLCOUNT": 2,
		"STAPILLJLDXCOUNT": 32,
		"ID": "ea74622d-3b56-4ba6-a6f4-c6eb9208f46b",
		"CODE": "3702110060",
		"NAME": "青岛青钢董家口充电站",
		"STATYPE": null,
		"STATYPENAME": null,
		"VISIBLE": "1",
		"STAOPSTATE": "3",
		"STAOPSTATENAME": "运营中",
		"WGS84LNG": 119.745828,
		"WGS84LAT": 35.644492,
		"STAADDR": "山东省青岛市黄岛区^西海岸经济新区董家口",
		"CDCS": 0
	}, {
		"STAPILLZLCOUNT": 2,
		"STAPILLJLDXCOUNT": 9,
		"ID": "d0e56dea-675b-413e-96f9-3e55170577a2",
		"CODE": "3702820079",
		"NAME": "青岛华山三路充电站",
		"STATYPE": null,
		"STATYPENAME": null,
		"VISIBLE": "1",
		"STAOPSTATE": "3",
		"STAOPSTATENAME": "运营中",
		"WGS84LNG": 120.412483,
		"WGS84LAT": 36.427241,
		"STAADDR": "山东省青岛市即墨市^服装工业园",
		"CDCS": 0
	}, {
		"STAPILLZLCOUNT": 1,
		"STAPILLJLDXCOUNT": 6,
		"ID": "d0e9b2e5-8afd-4bc1-a675-30036dc78821",
		"CODE": "3702130311",
		"NAME": "青岛利客来购物中心充电站",
		"STATYPE": null,
		"STATYPENAME": null,
		"VISIBLE": "1",
		"STAOPSTATE": "3",
		"STAOPSTATENAME": "运营中",
		"WGS84LNG": 120.429819,
		"WGS84LAT": 36.165344,
		"STAADDR": "山东省青岛市李沧区^京口路58号",
		"CDCS": 0
	}, {
		"STAPILLZLCOUNT": 0,
		"STAPILLJLDXCOUNT": 4,
		"ID": "2d42158f-240f-4b69-8c80-e584119d976a",
		"CODE": "3702110050",
		"NAME": "青岛黄岛拓普学院充电站",
		"STATYPE": null,
		"STATYPENAME": null,
		"VISIBLE": "1",
		"STAOPSTATE": "3",
		"STAOPSTATENAME": "运营中",
		"WGS84LNG": 120.159830,
		"WGS84LAT": 35.980320,
		"STAADDR": "山东省青岛市黄岛区^经济开发区香江路西端713-1号",
		"CDCS": 0
	}, {
		"STAPILLZLCOUNT": 1,
		"STAPILLJLDXCOUNT": 5,
		"ID": "0a6398f4-0b4f-451d-b9f4-ba49b8d91114",
		"CODE": "3702140353",
		"NAME": "青岛红岛便民中心充电站",
		"STATYPE": null,
		"STATYPENAME": null,
		"VISIBLE": "1",
		"STAOPSTATE": "3",
		"STAOPSTATENAME": "运营中",
		"WGS84LNG": 120.275229,
		"WGS84LAT": 36.217590,
		"STAADDR": "山东省青岛市城阳区S309(岙东路)^S309(岙东路)",
		"CDCS": 0
	}, {
		"STAPILLZLCOUNT": 2,
		"STAPILLJLDXCOUNT": 5,
		"ID": "ea8ba433-f036-4ed8-8849-07ee96416e96",
		"CODE": "3702810030",
		"NAME": "青岛胶州开发区派出所充电站",
		"STATYPE": null,
		"STATYPENAME": null,
		"VISIBLE": "1",
		"STAOPSTATE": "3",
		"STAOPSTATENAME": "运营中",
		"WGS84LNG": 120.088744,
		"WGS84LAT": 36.168928,
		"STAADDR": "山东省青岛市胶州市^尚德大道产业新区派出所",
		"CDCS": 0
	}, {
		"STAPILLZLCOUNT": 30,
		"STAPILLJLDXCOUNT": 8,
		"ID": "a7a3dd16-c700-492c-a8b0-f45917ccf715",
		"CODE": "3702020356",
		"NAME": "青岛江西路72号充电站",
		"STATYPE": null,
		"STATYPENAME": null,
		"VISIBLE": "1",
		"STAOPSTATE": "3",
		"STAOPSTATENAME": "运营中",
		"WGS84LNG": 120.398967,
		"WGS84LAT": 36.082423,
		"STAADDR": "山东省青岛市市南区高邮湖路^江西路72号",
		"CDCS": 0
	},