{
	"staList": [{
		"STAPILLZLCOUNT": 2,
		"STAPILLJLDXCOUNT": 6,
		"ID": "41016d38-fb77-42a7-afd1-7028dbc7120b",
		"CODE": "3501110019",
		"NAME": "福州马尾体育馆充电站",
		"STATYPE": null,
		"STATYPENAME": null,
		"VISIBLE": "1",
		"STAOPSTATE": "3",
		"STAOPSTATENAME": "运营中",
		"WGS84LNG": 119.407154,
		"WGS84LAT": 26.029584,
		"STAADDR": "福建省福州市晋安区^马尾体育馆南侧",
		"CDCS": 0
	}, {
		"STAPILLZLCOUNT": 0,
		"STAPILLJLDXCOUNT": 3,
		"ID": "63992bf2-82bf-4948-9ec5-27cf17eb7a4f",
		"CODE": "3501280005",
		"NAME": "平潭澳前管理局充电站",
		"STATYPE": null,
		"STATYPENAME": null,
		"VISIBLE": "1",
		"STAOPSTATE": "3",
		"STAOPSTATENAME": "运营中",
		"WGS84LNG": 119.834416,
		"WGS84LAT": 25.477581,
		"STAADDR": "福建省福州市平潭县^疏港道路澳前村委会背后",
		"CDCS": 0
	}, {
		"STAPILLZLCOUNT": 20,
		"STAPILLJLDXCOUNT": 12,
		"ID": "9c64e6f0-89d2-4fe7-9449-2b5a56c3f605",
		"CODE": "3501280008",
		"NAME": "平潭万宝山公园北门充电站",
		"STATYPE": null,
		"STATYPENAME": null,
		"VISIBLE": "1",
		"STAOPSTATE": "3",
		"STAOPSTATENAME": "运营中",
		"WGS84LNG": 119.793988,
		"WGS84LAT": 25.501588,
		"STAADDR": "福建省福州市平潭县竹屿湖东路^竹屿湖东路",
		"CDCS": 0
	}, {
		"STAPILLZLCOUNT": 0,
		"STAPILLJLDXCOUNT": 24,
		"ID": "c7569dbe-eb27-4280-9f28-393cbebb69f1",
		"CODE": "3501280015",
		"NAME": "平潭金井湾商务营运中心2号楼充电站",
		"STATYPE": null,
		"STATYPENAME": null,
		"VISIBLE": "1",
		"STAOPSTATE": "3",
		"STAOPSTATENAME": "运营中",
		"WGS84LNG": 119.715597,
		"WGS84LAT": 25.489597,
		"STAADDR": "福建省福州市平潭县^金井湾商务营运中心2号楼充电站",
		"CDCS": 0
	}, {
		"STAPILLZLCOUNT": 3,
		"STAPILLJLDXCOUNT": 3,
		"ID": "d9812af6-820a-459e-b5cb-0d0254587eb3",
		"CODE": "3501280006",
		"NAME": "鑫鑫爱充平潭鑫鑫名郡充电站",
		"STATYPE": null,
		"STATYPENAME": null,
		"VISIBLE": "1",
		"STAOPSTATE": "3",
		"STAOPSTATENAME": "运营中",
		"WGS84LNG": 119.806990,
		"WGS84LAT": 25.525101,
		"STAADDR": "福建省福州市平潭县^潭城镇九一六北路西侧鑫鑫名郡小区园前入口南侧停车位",
		"CDCS": 0
	}, {
		"STAPILLZLCOUNT": 0,
		"STAPILLJLDXCOUNT": 1,
		"ID": "ea2481ba-25e7-46eb-82ba-1efb3e6fb907",
		"CODE": "3501210053",
		"NAME": "青口宗孺工业充电站",
		"STATYPE": null,
		"STATYPENAME": null,
		"VISIBLE": "1",
		"STAOPSTATE": "3",
		"STAOPSTATENAME": "运营中",
		"WGS84LNG": 119.363361,
		"WGS84LAT": 25.905130,
		"STAADDR": "福建省福州市闽侯县奔驰大道^奔驰大道",
		"CDCS": 0
	}, {
		"STAPILLZLCOUNT": 1,
		"STAPILLJLDXCOUNT": 2,
		"ID": "9b488de8-ccb0-479f-b935-60d03c678339",
		"CODE": "3501041029",
		"NAME": "福州报业印务公司充电站",
		"STATYPE": null,
		"STATYPENAME": null,
		"VISIBLE": "1",
		"STAOPSTATE": "3",
		"STAOPSTATENAME": "运营中",
		"WGS84LNG": 119.260632,
		"WGS84LAT": 26.061000,
		"STAADDR": "福建省福州市仓山区^建新北路151号",
		"CDCS": 0
	}, {
		"STAPILLZLCOUNT": 0,
		"STAPILLJLDXCOUNT": 24,
		"ID": "9569b61a-0da3-4b27-bee9-34887fd586b7",
		"CODE": "3501280014",
		"NAME": "平潭金井湾商务营运中心3号楼充电站",
		"STATYPE": null,
		"STATYPENAME": null,
		"VISIBLE": "1",
		"STAOPSTATE": "3",
		"STAOPSTATENAME": "运营中",
		"WGS84LNG": 119.715376,
		"WGS84LAT": 25.489230,
		"STAADDR": "福建省福州市平潭县^金井湾商务营运中心3号楼地下车库",
		"CDCS": 0
	}, {
		"STAPILLZLCOUNT": 0,
		"STAPILLJLDXCOUNT": 1,
		"ID": "92699879-c818-421f-a482-209ace298505",
		"CODE": "3501210039",
		"NAME": "福州闽侯德雅工艺充电站",
		"STATYPE": null,
		"STATYPENAME": null,
		"VISIBLE": "1",
		"STAOPSTATE": "3",
		"STAOPSTATENAME": "运营中",
		"WGS84LNG": 119.135571,
		"WGS84LAT": 26.154262,
		"STAADDR": "福建省福州市闽侯县^甘蔗墩园洲工业区3号A区",
		"CDCS": 0
	}, {
		"STAPILLZLCOUNT": 0,
		"STAPILLJLDXCOUNT": 1,
		"ID": "007a37c2-f075-41cb-bddd-ab1d4be57f23",
		"CODE": "3501210030",
		"NAME": "福州青口伟速达充电站",
		"STATYPE": null,
		"STATYPENAME": null,
		"VISIBLE": "1",
		"STAOPSTATE": "3",
		"STAOPSTATENAME": "运营中",
		"WGS84LNG": 119.367082,
		"WGS84LAT": 25.881646,
		"STAADDR": "福建省福州市闽侯县^青口镇东福路伟速达（福州）安全系统有限公司",
		"CDCS": 0
	}, {
		"STAPILLZLCOUNT": 1,
		"STAPILLJLDXCOUNT": 4,
		"ID": "15a11baa-1962-4abe-8c4d-1ffaf1070ecb",
		"CODE": "3501820014",
		"NAME": "福州新密机电充电站",
		"STATYPE": null,
		"STATYPENAME": null,
		"VISIBLE": "1",
		"STAOPSTATE": "3",
		"STAOPSTATENAME": "运营中",
		"WGS84LNG": 119.584078,
		"WGS84LAT": 25.897883,
		"STAADDR": "福建省福州市长乐市^文武砂镇湖文路",
		"CDCS": 0
	}, {
		"STAPILLZLCOUNT": 1,
		"STAPILLJLDXCOUNT": 2,
		"ID": "5549c416-c8e4-43be-9ef8-c4e44fd3dc79",
		"CODE": "3501210077",
		"NAME": "青口钧玮金属充电站",
		"STATYPE": null,
		"STATYPENAME": null,
		"VISIBLE": "1",
		"STAOPSTATE": "3",
		"STAOPSTATENAME": "运营中",
		"WGS84LNG": 119.379767,
		"WGS84LAT": 25.895338,
		"STAADDR": "福建省福州市闽侯县^青口投资区",
		"CDCS": 0
	}, {
		"STAPILLZLCOUNT": 3,
		"STAPILLJLDXCOUNT": 7,
		"ID": "61991e7a-2f46-4217-8945-d1d86936b604",
		"CODE": "3501050006",
		"NAME": "福州马尾金澜大厦充电站",
		"STATYPE": null,
		"STATYPENAME": null,
		"VISIBLE": "1",
		"STAOPSTATE": "3",
		"STAOPSTATENAME": "运营中",
		"WGS84LNG": 119.436522,
		"WGS84LAT": 26.017308,
		"STAADDR": "福建省福州市马尾区^兆锵路33号",
		"CDCS": 0
	}, {
		"STAPILLZLCOUNT": 0,
		"STAPILLJLDXCOUNT": 3,
		"ID": "66443c4b-3df7-45b7-be6e-732f1b8b106b",
		"CODE": "3501110020",
		"NAME": "福州琴声商务园充电站",
		"STATYPE": null,
		"STATYPENAME": null,
		"VISIBLE": "1",
		"STAOPSTATE": "3",
		"STAOPSTATENAME": "运营中",
		"WGS84LNG": 119.300186,
		"WGS84LAT": 26.142955,
		"STAADDR": "福建省福州市晋安区^赤桥路539号",
		"CDCS": 0
	}, {
		"STAPILLZLCOUNT": 4,
		"STAPILLJLDXCOUNT": 6,
		"ID": "1328ba46-c475-4399-99a9-a672ff2d3658",
		"CODE": "3501020003",
		"NAME": "福州天嘉生活广场充电站",
		"STATYPE": null,
		"STATYPENAME": null,
		"VISIBLE": "1",
		"STAOPSTATE": "3",
		"STAOPSTATENAME": "运营中",
		"WGS84LNG": 119.294027,
		"WGS84LAT": 26.116821,
		"STAADDR": "福建省福州市鼓楼区^天泉路113号",
		"CDCS": 0
	}, {
		"STAPILLZLCOUNT": 1,
		"STAPILLJLDXCOUNT": 0,
		"ID": "5318f205-d446-48a9-af6b-5cb3e6d9302b",
		"CODE": "3501020005",
		"NAME": "福建经济学校充电站",
		"STATYPE": null,
		"STATYPENAME": null,
		"VISIBLE": "1",
		"STAOPSTATE": "3",
		"STAOPSTATENAME": "运营中",
		"WGS84LNG": 119.268434,
		"WGS84LAT": 26.095765,
		"STAADDR": "福建省福州市鼓楼区^梅亭路17号",
		"CDCS": 0
	}, {
		"STAPILLZLCOUNT": 0,
		"STAPILLJLDXCOUNT": 6,
		"ID": "69f26d7b-09c5-4433-95d8-0ddddc28df59",
		"CODE": "3501020014",
		"NAME": "福州三坊七巷充电站",
		"STATYPE": null,
		"STATYPENAME": null,
		"VISIBLE": "1",
		"STAOPSTATE": "3",
		"STAOPSTATENAME": "运营中",
		"WGS84LNG": 119.303353,
		"WGS84LAT": 26.085375,
		"STAADDR": "福建省福州市鼓楼区^营房里10号",
		"CDCS": 0
	}, {
		"STAPILLZLCOUNT": 4,
		"STAPILLJLDXCOUNT": 6,
		"ID": "b25bb038-2bf1-4e15-b1e7-369452f4a9ac",
		"CODE": "3501041048",
		"NAME": "福州三盛滨江国际充电站",
		"STATYPE": null,
		"STATYPENAME": null,
		"VISIBLE": "1",
		"STAOPSTATE": "3",
		"STAOPSTATENAME": "运营中",
		"WGS84LNG": 119.341030,
		"WGS84LAT": 26.053233,
		"STAADDR": "福建省福州市仓山区^南江滨西大道",
		"CDCS": 0
	}, {
		"STAPILLZLCOUNT": 0,
		"STAPILLJLDXCOUNT": 1,
		"ID": "6736b301-1613-44f6-a91e-d4a3b3fa53e5",
		"CODE": "3501210060",
		"NAME": "青口丸五富井充电站",
		"STATYPE": null,
		"STATYPENAME": null,
		"VISIBLE": "1",
		"STAOPSTATE": "3",
		"STAOPSTATENAME": "运营中",
		"WGS84LNG": 119.355473,
		"WGS84LAT": 25.891043,
		"STAADDR": "福建省福州市闽侯县^青口投资区",
		"CDCS": 0
	}, {
		"STAPILLZLCOUNT": 2,
		"STAPILLJLDXCOUNT": 0,
		"ID": "00e5c037-8bf1-461f-9dd6-8592ecb21418",
		"CODE": "3501041013",
		"NAME": "福州德易起亚4S店充电站",
		"STATYPE": null,
		"STATYPENAME": null,
		"VISIBLE": "1",
		"STAOPSTATE": "3",
		"STAOPSTATENAME": "运营中",
		"WGS84LNG": 119.329615,
		"WGS84LAT": 26.025277,
		"STAADDR": "福建省福州市仓山区^盖山镇南二环路盖山路出口处100米",
		"CDCS": 0
	}, {
		"STAPILLZLCOUNT": 2,
		"STAPILLJLDXCOUNT": 7,
		"ID": "fde7f28a-4954-4dea-bb91-dbe1b33a0a46",
		"CODE": "3501020006",
		"NAME": "福州冠亚广场停车场充电站",
		"STATYPE": null,
		"STATYPENAME": null,
		"VISIBLE": "1",
		"STAOPSTATE": "3",
		"STAOPSTATENAME": "运营中",
		"WGS84LNG": 119.306349,
		"WGS84LAT": 26.081950,
		"STAADDR": "福建省福州市鼓楼区^八一七北路268号大洋晶典负二层停车场",
		"CDCS": 0
	}, {
		"STAPILLZLCOUNT": 1,
		"STAPILLJLDXCOUNT": 14,
		"ID": "3c76db28-9efe-4046-b26b-ea24e2fb0f9a",
		"CODE": "3501110026",
		"NAME": "福州马尾东方名城充电站",
		"STATYPE": null,
		"STATYPENAME": null,
		"VISIBLE": "1",
		"STAOPSTATE": "3",
		"STAOPSTATENAME": "运营中",
		"WGS84LNG": 119.404904,
		"WGS84LAT": 26.024377,
		"STAADDR": "福建省福州市晋安区^儒江路",
		"CDCS": 0
	}, {
		"STAPILLZLCOUNT": 3,
		"STAPILLJLDXCOUNT": 12,
		"ID": "dfb66e9d-21ba-4c50-af35-7c5737bfe781",
		"CODE": "3501041037",
		"NAME": "福州捷福创意产业园充电站",
		"STATYPE": null,
		"STATYPENAME": null,
		"VISIBLE": "1",
		"STAOPSTATE": "3",
		"STAOPSTATENAME": "运营中",
		"WGS84LNG": 119.260897,
		"WGS84LAT": 26.067536,
		"STAADDR": "福建省福州市仓山区^金工路28号",
		"CDCS": 0
	}, {
		"STAPILLZLCOUNT": 3,
		"STAPILLJLDXCOUNT": 6,
		"ID": "a30de497-9cdd-4784-9752-c336564c1d0d",
		"CODE": "3501810003",
		"NAME": "福清奇瑞新能源4S店充电站",
		"STATYPE": null,
		"STATYPENAME": null,
		"VISIBLE": "1",
		"STAOPSTATE": "3",
		"STAOPSTATENAME": "运营中",
		"WGS84LNG": 119.442688,
		"WGS84LAT": 25.654441,
		"STAADDR": "福建省福州市福清市^海口镇305省道大真线东阁路段（康居建材旁）",
		"CDCS": 0
	}, {
		"STAPILLZLCOUNT": 1,
		"STAPILLJLDXCOUNT": 2,
		"ID": "419fa0b2-5e19-4ad3-a87e-1bac982fc6e8",
		"CODE": "3501210087",
		"NAME": "福州青口宏玮工业充电站",
		"STATYPE": null,
		"STATYPENAME": null,
		"VISIBLE": "1",
		"STAOPSTATE": "3",
		"STAOPSTATENAME": "运营中",
		"WGS84LNG": 119.362741,
		"WGS84LAT": 25.909422,
		"STAADDR": "福建省福州市闽侯县^青口投资区",
		"CDCS": 0
	}, {
		"STAPILLZLCOUNT": 0,
		"STAPILLJLDXCOUNT": 0,
		"ID": "2fd8b14f-93e4-40ce-b085-9ba37cea34f0",
		"CODE": "3501110007",
		"NAME": "福州居住主题528充电站",
		"STATYPE": null,
		"STATYPENAME": null,
		"VISIBLE": "1",
		"STAOPSTATE": "3",
		"STAOPSTATENAME": "运营中",
		"WGS84LNG": 119.332850,
		"WGS84LAT": 26.133743,
		"STAADDR": "福建省福州市晋安区^五四北居住主题公园528号停车场",
		"CDCS": 0
	}, {
		"STAPILLZLCOUNT": 1,
		"STAPILLJLDXCOUNT": 0,
		"ID": "d3bdf75d-ae1e-4452-949d-b313a97df2e2",
		"CODE": "3501820001",
		"NAME": "福州长乐机场维修充电站",
		"STATYPE": null,
		"STATYPENAME": null,
		"VISIBLE": "1",
		"STAOPSTATE": "3",
		"STAOPSTATENAME": "运营中",
		"WGS84LNG": 119.679253,
		"WGS84LAT": 25.933212,
		"STAADDR": "福建省福州市长乐市^长乐国际机场货运路",
		"CDCS": 0
	}, {
		"STAPILLZLCOUNT": 0,
		"STAPILLJLDXCOUNT": 1,
		"ID": "4ea3fb28-40fc-4ea7-908d-69f6881fb7a1",
		"CODE": "3501210019",
		"NAME": "福州闽富华充电站",
		"STATYPE": null,
		"STATYPENAME": null,
		"VISIBLE": "1",
		"STAOPSTATE": "3",
		"STAOPSTATENAME": "运营中",
		"WGS84LNG": 119.101732,
		"WGS84LAT": 26.161663,
		"STAADDR": "福建省福州市闽侯县^竹岐乡溪口118号",
		"CDCS": 0
	}, {
		"STAPILLZLCOUNT": 1,
		"STAPILLJLDXCOUNT": 2,
		"ID": "b43d94ec-2050-4d4d-b38c-56b6dbedcdd8",
		"CODE": "3501210063",
		"NAME": "福州青口承昌机械充电站",
		"STATYPE": null,
		"STATYPENAME": null,
		"VISIBLE": "1",
		"STAOPSTATE": "3",
		"STAOPSTATENAME": "运营中",
		"WGS84LNG": 119.380995,
		"WGS84LAT": 25.895846,
		"STAADDR": "福建省福州市闽侯县^G324(福昆线)",
		"CDCS": 0
	}, {
		"STAPILLZLCOUNT": 3,
		"STAPILLJLDXCOUNT": 0,
		"ID": "7456f78f-6c9f-4a16-bc56-2ed5fcafbda1",
		"CODE": "3501041017",
		"NAME": "绿色客运金龙华威城乡客运充电站",
		"STATYPE": null,
		"STATYPENAME": null,
		"VISIBLE": "1",
		"STAOPSTATE": "3",
		"STAOPSTATENAME": "运营中",
		"WGS84LNG": 119.340252,
		"WGS84LAT": 26.042646,
		"STAADDR": "福建省福州市仓山区^连江南路160号华威城乡客运站",
		"CDCS": 0
	}, {
		"STAPILLZLCOUNT": 0,
		"STAPILLJLDXCOUNT": 9,
		"ID": "47ce515e-3395-4048-b64f-7a301457f6ad",
		"CODE": "3501820006",
		"NAME": "福州长乐东龙纺织充电站",
		"STATYPE": null,
		"STATYPENAME": null,
		"VISIBLE": "1",
		"STAOPSTATE": "3",
		"STAOPSTATENAME": "运营中",
		"WGS84LNG": 119.608421,
		"WGS84LAT": 25.794870,
		"STAADDR": "福建省福州市长乐市^松下镇龙纺工业区",
		"CDCS": 0
	}, {
		"STAPILLZLCOUNT": 3,
		"STAPILLJLDXCOUNT": 17,
		"ID": "a03caa52-c432-4236-bda2-e4b0e5dc05e5",
		"CODE": "3501110008",
		"NAME": "福州晋安稻田创业小镇充电站",
		"STATYPE": null,
		"STATYPENAME": null,
		"VISIBLE": "1",
		"STAOPSTATE": "3",
		"STAOPSTATENAME": "运营中",
		"WGS84LNG": 119.318181,
		"WGS84LAT": 26.136314,
		"STAADDR": "福建省福州市晋安区^南平东路98号",
		"CDCS": 0
	}, {
		"STAPILLZLCOUNT": 2,
		"STAPILLJLDXCOUNT": 0,
		"ID": "e6fca4c0-0f1b-4f5e-8207-cfab0f55478b",
		"CODE": "3501810005",
		"NAME": "福清海峡商交中心充电站",
		"STATYPE": null,
		"STATYPENAME": null,
		"VISIBLE": "1",
		"STAOPSTATE": "3",
		"STAOPSTATENAME": "运营中",
		"WGS84LNG": 119.564366,
		"WGS84LAT": 25.488356,
		"STAADDR": "福建省福州市福清市S305^S305",
		"CDCS": 0
	}, {
		"STAPILLZLCOUNT": 2,
		"STAPILLJLDXCOUNT": 3,
		"ID": "d84d4342-5925-49ce-bc10-03ecb6d50c85",
		"CODE": "3501041031",
		"NAME": "福州新汇诚汽车充电站",
		"STATYPE": null,
		"STATYPENAME": null,
		"VISIBLE": "1",
		"STAOPSTATE": "3",
		"STAOPSTATENAME": "运营中",
		"WGS84LNG": 119.356048,
		"WGS84LAT": 26.008442,
		"STAADDR": "福建省福州市仓山区^城门镇刀石山路8号",
		"CDCS": 0
	}, {
		"STAPILLZLCOUNT": 8,
		"STAPILLJLDXCOUNT": 18,
		"ID": "08cc4172-e567-4ef5-a5f8-0dd20062fc2f",
		"CODE": "3501210044",
		"NAME": "福州海峡汽车文化广场充电站",
		"STATYPE": null,
		"STATYPENAME": null,
		"VISIBLE": "1",
		"STAOPSTATE": "3",
		"STAOPSTATENAME": "运营中",
		"WGS84LNG": 119.377163,
		"WGS84LAT": 25.923851,
		"STAADDR": "福建省福州市闽侯县^奔驰大道",
		"CDCS": 0
	}, {
		"STAPILLZLCOUNT": 1,
		"STAPILLJLDXCOUNT": 1,
		"ID": "8ee89f14-0230-4004-91cd-da09759e34ea",
		"CODE": "3501110009",
		"NAME": "福州天艺文创园充电站",
		"STATYPE": null,
		"STATYPENAME": null,
		"VISIBLE": "1",
		"STAOPSTATE": "3",
		"STAOPSTATENAME": "运营中",
		"WGS84LNG": 119.298137,
		"WGS84LAT": 26.141067,
		"STAADDR": "福建省福州市晋安区^新店镇西庄路233号天艺文创园",
		"CDCS": 0
	}, {
		"STAPILLZLCOUNT": 2,
		"STAPILLJLDXCOUNT": 2,
		"ID": "d12cd95e-8662-4fe2-9794-74f03de35b4a",
		"CODE": "3501210047",
		"NAME": "福州闽侯上街医院充电站",
		"STATYPE": null,
		"STATYPENAME": null,
		"VISIBLE": "1",
		"STAOPSTATE": "3",
		"STAOPSTATENAME": "运营中",
		"WGS84LNG": 119.197575,
		"WGS84LAT": 26.077970,
		"STAADDR": "琇焘路",
		"CDCS": 0
	}, {
		"STAPILLZLCOUNT": 1,
		"STAPILLJLDXCOUNT": 3,
		"ID": "be5c567d-f3cd-4c6e-82c1-b9e2d481f60a",
		"CODE": "3501210002",
		"NAME": "福汽集团总部大楼充电站",
		"STATYPE": null,
		"STATYPENAME": null,
		"VISIBLE": "1",
		"STAOPSTATE": "3",
		"STAOPSTATENAME": "运营中",
		"WGS84LNG": 119.222610,
		"WGS84LAT": 26.046220,
		"STAADDR": "福建省福州市闽侯县^高新区海西园高新大道7号福建汽车工业集团大厦",
		"CDCS": 0
	}, {
		"STAPILLZLCOUNT": 4,
		"STAPILLJLDXCOUNT": 10,
		"ID": "9ab3ca76-f32f-4622-8100-ed88fff89f22",
		"CODE": "3501210025",
		"NAME": "福州闽侯富盛公司充电站",
		"STATYPE": null,
		"STATYPENAME": null,
		"VISIBLE": "1",
		"STAOPSTATE": "3",
		"STAOPSTATENAME": "运营中",
		"WGS84LNG": 119.022589,
		"WGS84LAT": 26.181345,
		"STAADDR": "福建省福州市闽侯县^鸿尾牛头山工业小区58号",
		"CDCS": 0
	}, {
		"STAPILLZLCOUNT": 1,
		"STAPILLJLDXCOUNT": 3,
		"ID": "05e908b3-1923-4eca-846f-9268edecbce0",
		"CODE": "3501210013",
		"NAME": "福州小糸大亿车灯充电站",
		"STATYPE": null,
		"STATYPENAME": null,
		"VISIBLE": "1",
		"STAOPSTATE": "3",
		"STAOPSTATENAME": "运营中",
		"WGS84LNG": 119.358918,
		"WGS84LAT": 25.881722,
		"STAADDR": "福建省福州市闽侯县^青口镇前洋路1号",
		"CDCS": 0
	}, {
		"STAPILLZLCOUNT": 2,
		"STAPILLJLDXCOUNT": 10,
		"ID": "89ccebf9-b338-4a26-8708-f10833b8d4a2",
		"CODE": "3501020007",
		"NAME": "福州大自然创意园充电站",
		"STATYPE": null,
		"STATYPENAME": null,
		"VISIBLE": "1",
		"STAOPSTATE": "3",
		"STAOPSTATENAME": "运营中",
		"WGS84LNG": 119.287862,
		"WGS84LAT": 26.115572,
		"STAADDR": "福建省福州市鼓楼区^福州市鼓楼区铜盘路466号",
		"CDCS": 0
	}, {
		"STAPILLZLCOUNT": 1,
		"STAPILLJLDXCOUNT": 0,
		"ID": "968f3694-cc16-45a7-8402-a6168d615f8f",
		"CODE": "3501110004",
		"NAME": "绿色客运福州中旅集团总部充电站",
		"STATYPE": null,
		"STATYPENAME": null,
		"VISIBLE": "1",
		"STAOPSTATE": "3",
		"STAOPSTATENAME": "运营中",
		"WGS84LNG": 119.323294,
		"WGS84LAT": 26.110170,
		"STAADDR": "福建省福州市晋安区^鼓楼区六一北路3号",
		"CDCS": 0
	}, {
		"STAPILLZLCOUNT": 1,
		"STAPILLJLDXCOUNT": 0,
		"ID": "10870b2d-6df4-4ed8-b4ee-87f0f5c15084",
		"CODE": "3501210088",
		"NAME": "福州青口晋昌机械充电站",
		"STATYPE": null,
		"STATYPENAME": null,
		"VISIBLE": "1",
		"STAOPSTATE": "3",
		"STAOPSTATENAME": "运营中",
		"WGS84LNG": 119.355113,
		"WGS84LAT": 25.899350,
		"STAADDR": "福建省福州市闽侯县^新城西路",
		"CDCS": 0
	}, {
		"STAPILLZLCOUNT": 14,
		"STAPILLJLDXCOUNT": 0,
		"ID": "257c6b6f-f7e6-4fc1-ae71-6a436e64c945",
		"CODE": "3501220005",
		"NAME": "福建闽运连江充电站2期",
		"STATYPE": null,
		"STATYPENAME": null,
		"VISIBLE": "1",
		"STAOPSTATE": "3",
		"STAOPSTATENAME": "运营中",
		"WGS84LNG": 119.556327,
		"WGS84LAT": 26.217179,
		"STAADDR": "福建省福州市连江县^连江丹凤东路公交专用场站",
		"CDCS": 0
	}, {
		"STAPILLZLCOUNT": 4,
		"STAPILLJLDXCOUNT": 5,
		"ID": "f8ac71a5-58ca-4bd7-8a7d-5ab1eca9f41b",
		"CODE": "3501210029",
		"NAME": "青口青顺汽贸充电站",
		"STATYPE": null,
		"STATYPENAME": null,
		"VISIBLE": "1",
		"STAOPSTATE": "3",
		"STAOPSTATENAME": "运营中",
		"WGS84LNG": 119.375870,
		"WGS84LAT": 25.897564,
		"STAADDR": "福建省福州市闽侯县^青口镇陶精路1号",
		"CDCS": 0
	}, {
		"STAPILLZLCOUNT": 1,
		"STAPILLJLDXCOUNT": 2,
		"ID": "9d6e3485-561c-4b82-8e76-b47440334f8c",
		"CODE": "3501210056",
		"NAME": "福建协展机械工业充电站",
		"STATYPE": null,
		"STATYPENAME": null,
		"VISIBLE": "1",
		"STAOPSTATE": "3",
		"STAOPSTATENAME": "运营中",
		"WGS84LNG": 119.368706,
		"WGS84LAT": 25.887105,
		"STAADDR": "东南大道",
		"CDCS": 0
	}, {
		"STAPILLZLCOUNT": 1,
		"STAPILLJLDXCOUNT": 1,
		"ID": "28b0e192-7db5-4650-93be-9f233cabadc4",
		"CODE": "3501210031",
		"NAME": "福州明芳汽车部件充电站",
		"STATYPE": null,
		"STATYPENAME": null,
		"VISIBLE": "1",
		"STAOPSTATE": "3",
		"STAOPSTATENAME": "运营中",
		"WGS84LNG": 119.364060,
		"WGS84LAT": 25.885649,
		"STAADDR": "福建省福州市闽侯县^青口工业区福州明芳汽车部件有限公司",
		"CDCS": 0
	}, {
		"STAPILLZLCOUNT": 1,
		"STAPILLJLDXCOUNT": 1,
		"ID": "d2f79695-0ec4-44fd-b02a-d3cb64be6c4f",
		"CODE": "3501210059",
		"NAME": "青口联泓交通器材充电站",
		"STATYPE": null,
		"STATYPENAME": null,
		"VISIBLE": "1",
		"STAOPSTATE": "3",
		"STAOPSTATENAME": "运营中",
		"WGS84LNG": 119.354722,
		"WGS84LAT": 25.891496,
		"STAADDR": "福建省福州市闽侯县^吉山路",
		"CDCS": 0
	}, {
		"STAPILLZLCOUNT": 1,
		"STAPILLJLDXCOUNT": 6,
		"ID": "33743d4a-cc2c-4e24-ae61-c6148c87ef53",
		"CODE": "3501020001",
		"NAME": "福州贵安温泉度假村充电站",
		"STATYPE": null,
		"STATYPENAME": null,
		"VISIBLE": "1",
		"STAOPSTATE": "3",
		"STAOPSTATENAME": "运营中",
		"WGS84LNG": 119.425031,
		"WGS84LAT": 26.218371,
		"STAADDR": "福建省福州市连江县^贵安温泉会议中心",
		"CDCS": 0
	}, {
		"STAPILLZLCOUNT": 2,
		"STAPILLJLDXCOUNT": 5,
		"ID": "5b9e49e3-28f0-4699-8f54-a0c9ce1b50c1",
		"CODE": "3501041052",
		"NAME": "福州中庚聚龙酒店充电站",
		"STATYPE": null,
		"STATYPENAME": null,
		"VISIBLE": "1",
		"STAOPSTATE": "3",
		"STAOPSTATENAME": "运营中",
		"WGS84LNG": 119.377043,
		"WGS84LAT": 26.030689,
		"STAADDR": "福建省福州市仓山区^福建省福州市仓山区南江滨西大道203号负一层停车场",
		"CDCS": 0
	}, {
		"STAPILLZLCOUNT": 0,
		"STAPILLJLDXCOUNT": 24,
		"ID": "ad6adcf8-798a-4ab2-a5d2-0b43670132fe",
		"CODE": "3501280013",
		"NAME": "平潭金井湾商务营运中心5号楼充电站",
		"STATYPE": null,
		"STATYPENAME": null,
		"VISIBLE": "1",
		"STAOPSTATE": "3",
		"STAOPSTATENAME": "运营中",
		"WGS84LNG": 119.717605,
		"WGS84LAT": 25.487289,
		"STAADDR": "福建省福州市平潭县^金井湾商务营运中心5号楼地下车库",
		"CDCS": 0
	}, {
		"STAPILLZLCOUNT": 0,
		"STAPILLJLDXCOUNT": 3,
		"ID": "13c14ef3-1968-4a4a-acf1-6e35a8305bd0",
		"CODE": "3501041024",
		"NAME": "福建理工学校充电站",
		"STATYPE": null,
		"STATYPENAME": null,
		"VISIBLE": "1",
		"STAOPSTATE": "3",
		"STAOPSTATENAME": "运营中",
		"WGS84LNG": 119.251939,
		"WGS84LAT": 26.095107,
		"STAADDR": "福建省福州市仓山区^洪山桥上店61号",
		"CDCS": 0
	}, {
		"STAPILLZLCOUNT": 2,
		"STAPILLJLDXCOUNT": 1,
		"ID": "7e9a2b45-ee45-485a-a081-b62aba48ba2e",
		"CODE": "3501820007",
		"NAME": "福州通尔达充电站",
		"STATYPE": null,
		"STATYPENAME": null,
		"VISIBLE": "1",
		"STAOPSTATE": "3",
		"STAOPSTATENAME": "运营中",
		"WGS84LNG": 119.549679,
		"WGS84LAT": 25.951429,
		"STAADDR": "福建省福州市长乐市^鹤上鲤鱼山工业区",
		"CDCS": 0
	}, {
		"STAPILLZLCOUNT": 4,
		"STAPILLJLDXCOUNT": 24,
		"ID": "5d08f034-4050-4c77-8cca-693d0bca7f5b",
		"CODE": "3501020020",
		"NAME": "福州市南街地下空间充电站",
		"STATYPE": null,
		"STATYPENAME": null,
		"VISIBLE": "1",
		"STAOPSTATE": "3",
		"STAOPSTATENAME": "运营中",
		"WGS84LNG": 119.306296,
		"WGS84LAT": 26.086939,
		"STAADDR": "福建省福州市鼓楼区^吉庇路18",
		"CDCS": 0
	}, {
		"STAPILLZLCOUNT": 0,
		"STAPILLJLDXCOUNT": 1,
		"ID": "a05830ab-a747-4b96-87ab-e34f3882d831",
		"CODE": "3501210008",
		"NAME": "福州闽侯人民医院充电站",
		"STATYPE": null,
		"STATYPENAME": null,
		"VISIBLE": "1",
		"STAOPSTATE": "3",
		"STAOPSTATENAME": "运营中",
		"WGS84LNG": 119.383132,
		"WGS84LAT": 25.903253,
		"STAADDR": "福建省福州市闽侯县^福州市闽侯县镇青沪1号闽侯县人民医院",
		"CDCS": 0
	}, {
		"STAPILLZLCOUNT": 4,
		"STAPILLJLDXCOUNT": 5,
		"ID": "b3ff27b0-95d6-4225-8e00-6b40097e8e99",
		"CODE": "3501210001",
		"NAME": "福州东南汽车总场充电站",
		"STATYPE": null,
		"STATYPENAME": null,
		"VISIBLE": "1",
		"STAOPSTATE": "3",
		"STAOPSTATENAME": "运营中",
		"WGS84LNG": 119.372343,
		"WGS84LAT": 25.884812,
		"STAADDR": "福建省福州市闽侯县^青口工业区东南大道66号",
		"CDCS": 0
	}, {
		"STAPILLZLCOUNT": 4,
		"STAPILLJLDXCOUNT": 2,
		"ID": "ef694209-3fdb-4dce-8899-4dba3aa44781",
		"CODE": "3501020002",
		"NAME": "福州温泉公园博物馆充电站",
		"STATYPE": null,
		"STATYPENAME": null,
		"VISIBLE": "1",
		"STAOPSTATE": "3",
		"STAOPSTATENAME": "运营中",
		"WGS84LNG": 119.320286,
		"WGS84LAT": 26.105052,
		"STAADDR": "福建省福州市鼓楼区^温泉公园路123号",
		"CDCS": 0
	}, {
		"STAPILLZLCOUNT": 0,
		"STAPILLJLDXCOUNT": 1,
		"ID": "558c9383-1780-43c8-92d8-15d4aae6d423",
		"CODE": "3501210010",
		"NAME": "福州闽侯盛华工艺充电站",
		"STATYPE": null,
		"STATYPENAME": null,
		"VISIBLE": "1",
		"STAOPSTATE": "3",
		"STAOPSTATENAME": "运营中",
		"WGS84LNG": 119.100229,
		"WGS84LAT": 26.160891,
		"STAADDR": "福建省福州市闽侯县^竹岐乡溪口工业小区",
		"CDCS": 0
	}, {
		"STAPILLZLCOUNT": 0,
		"STAPILLJLDXCOUNT": 6,
		"ID": "c70584d4-cbd0-44df-8f1d-5b10d0d05bcb",
		"CODE": "3501810018",
		"NAME": "福清裕荣汇购物中心2期充电站",
		"STATYPE": null,
		"STATYPENAME": null,
		"VISIBLE": "1",
		"STAOPSTATE": "3",
		"STAOPSTATENAME": "运营中",
		"WGS84LNG": 119.358772,
		"WGS84LAT": 25.726969,
		"STAADDR": "福建省福州市福清市^福和大道裕荣汇购物中心B2",
		"CDCS": 0
	}, {
		"STAPILLZLCOUNT": 2,
		"STAPILLJLDXCOUNT": 0,
		"ID": "92248ae8-2e09-4fbe-829a-1eaec6de52e6",
		"CODE": "3501810002",
		"NAME": "绿色客运福州中旅福清市充电站",
		"STATYPE": null,
		"STATYPENAME": null,
		"VISIBLE": "1",
		"STAOPSTATE": "3",
		"STAOPSTATENAME": "运营中",
		"WGS84LNG": 119.351553,
		"WGS84LAT": 25.719653,
		"STAADDR": "福建省福州市福清市^融桥经济开发区福人路",
		"CDCS": 0
	}, {
		"STAPILLZLCOUNT": 2,
		"STAPILLJLDXCOUNT": 2,
		"ID": "b3cb89f5-18d5-4111-be0e-90ee38fe2685",
		"CODE": "3501050003",
		"NAME": "福州马尾资本交易中心充电站",
		"STATYPE": null,
		"STATYPENAME": null,
		"VISIBLE": "1",
		"STAOPSTATE": "3",
		"STAOPSTATENAME": "运营中",
		"WGS84LNG": 119.438966,
		"WGS84LAT": 26.015395,
		"STAADDR": "福建省福州市马尾区^东滨一路与儒江东路交叉口东100米",
		"CDCS": 0
	}, {
		"STAPILLZLCOUNT": 17,
		"STAPILLJLDXCOUNT": 0,
		"ID": "7f731065-6428-4953-929c-eda7a7fc8e02",
		"CODE": "3501810025",
		"NAME": "福清凯乐汇新能源充电站",
		"STATYPE": null,
		"STATYPENAME": null,
		"VISIBLE": "1",
		"STAOPSTATE": "3",
		"STAOPSTATENAME": "运营中",
		"WGS84LNG": 119.330536,
		"WGS84LAT": 25.721198,
		"STAADDR": "福建省福州市福清市^福政路9号（凯乐汇名车会所）内停车场",
		"CDCS": 0
	}, {
		"STAPILLZLCOUNT": 20,
		"STAPILLJLDXCOUNT": 12,
		"ID": "146725e4-b7a0-407b-84c4-3818d9658322",
		"CODE": "3501280012",
		"NAME": "平潭南寨山景区充电站",
		"STATYPE": null,
		"STATYPENAME": null,
		"VISIBLE": "1",
		"STAOPSTATE": "3",
		"STAOPSTATENAME": "运营中",
		"WGS84LNG": 119.741407,
		"WGS84LAT": 25.467842,
		"STAADDR": "福建省福州市平潭县X164(中山大道)^X164(中山大道)",
		"CDCS": 0
	}, {
		"STAPILLZLCOUNT": 0,
		"STAPILLJLDXCOUNT": 1,
		"ID": "74af7633-99fb-411e-81ac-d4018afc4f96",
		"CODE": "3501280003",
		"NAME": "福州平潭国税充电站",
		"STATYPE": null,
		"STATYPENAME": null,
		"VISIBLE": "1",
		"STAOPSTATE": "3",
		"STAOPSTATENAME": "运营中",
		"WGS84LNG": 119.801514,
		"WGS84LAT": 25.502068,
		"STAADDR": "福建省福州市平潭县^西航路中段",
		"CDCS": 0
	}, {
		"STAPILLZLCOUNT": 1,
		"STAPILLJLDXCOUNT": 1,
		"ID": "e5aef302-07e7-4bb2-a786-b8f7984e3be4",
		"CODE": "3501210051",
		"NAME": "青口富全橡胶充电站",
		"STATYPE": null,
		"STATYPENAME": null,
		"VISIBLE": "1",
		"STAOPSTATE": "3",
		"STAOPSTATENAME": "运营中",
		"WGS84LNG": 119.356502,
		"WGS84LAT": 25.882946,
		"STAADDR": "福建省福州市闽侯县^青口投资区东长路2号",
		"CDCS": 0
	}, {
		"STAPILLZLCOUNT": 2,
		"STAPILLJLDXCOUNT": 4,
		"ID": "f391dd4d-2867-48fb-8efd-1ee7757d6357",
		"CODE": "3501810004",
		"NAME": "福清天兴富创世纪城充电站",
		"STATYPE": null,
		"STATYPENAME": null,
		"VISIBLE": "1",
		"STAOPSTATE": "3",
		"STAOPSTATENAME": "运营中",
		"WGS84LNG": 119.405115,
		"WGS84LAT": 25.693447,
		"STAADDR": "福建省福州市福清市^龙江路375号",
		"CDCS": 0
	}, {
		"STAPILLZLCOUNT": 0,
		"STAPILLJLDXCOUNT": 1,
		"ID": "6f7f082f-6661-4b09-8a49-06bf226ba160",
		"CODE": "3501020017",
		"NAME": "福建省建筑设计院充电站",
		"STATYPE": null,
		"STATYPENAME": null,
		"VISIBLE": "1",
		"STAOPSTATE": "3",
		"STAOPSTATENAME": "运营中",
		"WGS84LNG": 119.298423,
		"WGS84LAT": 26.090483,
		"STAADDR": "福建省福州市鼓楼区^通湖路188号",
		"CDCS": 0
	}, {
		"STAPILLZLCOUNT": 0,
		"STAPILLJLDXCOUNT": 1,
		"ID": "8f9e6662-b047-4815-829c-180b03b43e5a",
		"CODE": "3501210026",
		"NAME": "福州青口裕新汽车充电站",
		"STATYPE": null,
		"STATYPENAME": null,
		"VISIBLE": "1",
		"STAOPSTATE": "3",
		"STAOPSTATENAME": "运营中",
		"WGS84LNG": 119.390147,
		"WGS84LAT": 25.923027,
		"STAADDR": "福建省福州市闽侯县^祥谦镇祥通路3号",
		"CDCS": 0
	}, {
		"STAPILLZLCOUNT": 2,
		"STAPILLJLDXCOUNT": 0,
		"ID": "53fb303a-ff10-4bd0-a347-b3ea5219fee7",
		"CODE": "3501250009",
		"NAME": "福州永泰顺达食品充电站",
		"STATYPE": null,
		"STATYPENAME": null,
		"VISIBLE": "1",
		"STAOPSTATE": "3",
		"STAOPSTATENAME": "运营中",
		"WGS84LNG": 118.971905,
		"WGS84LAT": 25.860115,
		"STAADDR": "福建省福州市永泰县^城峰镇白沙宫工业区顺达食品企业",
		"CDCS": 0
	}, {
		"STAPILLZLCOUNT": 0,
		"STAPILLJLDXCOUNT": 1,
		"ID": "bdb3e9a6-11f5-41c5-92ed-c4c1cac0cfa0",
		"CODE": "3501240001",
		"NAME": "福州闽清聚福公司充电站",
		"STATYPE": null,
		"STATYPENAME": null,
		"VISIBLE": "1",
		"STAOPSTATE": "3",
		"STAOPSTATENAME": "运营中",
		"WGS84LNG": 118.908930,
		"WGS84LAT": 26.204410,
		"STAADDR": "福建省福州市闽清县^梅溪镇建兴村(综合楼)",
		"CDCS": 0
	}, {
		"STAPILLZLCOUNT": 1,
		"STAPILLJLDXCOUNT": 2,
		"ID": "df7b8e78-57ae-4f08-8964-d9b64f7c57d5",
		"CODE": "3501210073",
		"NAME": "福州青口正道汽车充电站",
		"STATYPE": null,
		"STATYPENAME": null,
		"VISIBLE": "1",
		"STAOPSTATE": "3",
		"STAOPSTATENAME": "运营中",
		"WGS84LNG": 119.358555,
		"WGS84LAT": 25.880714,
		"STAADDR": "福建省福州市闽侯县^青口投资区东水路",
		"CDCS": 0
	}, {
		"STAPILLZLCOUNT": 23,
		"STAPILLJLDXCOUNT": 0,
		"ID": "de3f6030-1702-4b87-896b-894ec4c91b76",
		"CODE": "3501230003",
		"NAME": "罗源凤西客运站充电站",
		"STATYPE": null,
		"STATYPENAME": null,
		"VISIBLE": "1",
		"STAOPSTATE": "3",
		"STAOPSTATENAME": "运营中",
		"WGS84LNG": 119.549752,
		"WGS84LAT": 26.490035,
		"STAADDR": "福建省福州市罗源县^凤南西路38号",
		"CDCS": 0
	}, {
		"STAPILLZLCOUNT": 16,
		"STAPILLJLDXCOUNT": 12,
		"ID": "8e9b9804-8045-4a16-b4e6-83736acacfc5",
		"CODE": "3501280011",
		"NAME": "平潭金井湾游客中心充电站",
		"STATYPE": null,
		"STATYPENAME": null,
		"VISIBLE": "1",
		"STAOPSTATE": "3",
		"STAOPSTATENAME": "运营中",
		"WGS84LNG": 119.696970,
		"WGS84LAT": 25.483855,
		"STAADDR": "福建省福州市平潭县金井湾大道辅路^金井湾大道辅路",
		"CDCS": 0
	}, {
		"STAPILLZLCOUNT": 2,
		"STAPILLJLDXCOUNT": 0,
		"ID": "11d41c48-fde6-4eff-801e-138cb50411fb",
		"CODE": "3501820002",
		"NAME": "福州长乐机场厦航充电站",
		"STATYPE": null,
		"STATYPENAME": null,
		"VISIBLE": "1",
		"STAOPSTATE": "3",
		"STAOPSTATENAME": "运营中",
		"WGS84LNG": 119.679986,
		"WGS84LAT": 25.933138,
		"STAADDR": "福建省福州市长乐市^长乐机场",
		"CDCS": 0
	}, {
		"STAPILLZLCOUNT": 1,
		"STAPILLJLDXCOUNT": 1,
		"ID": "7e1fae8a-ffa5-4974-983e-f969890ccecb",
		"CODE": "3501210027",
		"NAME": "福州泰全电机充电站",
		"STATYPE": null,
		"STATYPENAME": null,
		"VISIBLE": "1",
		"STAOPSTATE": "3",
		"STAOPSTATENAME": "运营中",
		"WGS84LNG": 119.365179,
		"WGS84LAT": 25.882076,
		"STAADDR": "福建省福州市闽侯县^青口投资区奔驰大道",
		"CDCS": 0
	}, {
		"STAPILLZLCOUNT": 2,
		"STAPILLJLDXCOUNT": 10,
		"ID": "92a754ff-9362-477c-be89-ce7d53632744",
		"CODE": "3501110015",
		"NAME": "福州盛丰大厦充电站",
		"STATYPE": null,
		"STATYPENAME": null,
		"VISIBLE": "1",
		"STAOPSTATE": "3",
		"STAOPSTATENAME": "运营中",
		"WGS84LNG": 119.367880,
		"WGS84LAT": 26.088585,
		"STAADDR": "福建省福州市晋安区^福新东路478号盛丰大厦",
		"CDCS": 0
	}, {
		"STAPILLZLCOUNT": 0,
		"STAPILLJLDXCOUNT": 1,
		"ID": "9e431ba0-dfb2-4e50-a25b-2ac8efb98515",
		"CODE": "3501210009",
		"NAME": "福州闽侯百宜家具充电站",
		"STATYPE": null,
		"STATYPENAME": null,
		"VISIBLE": "1",
		"STAOPSTATE": "3",
		"STAOPSTATENAME": "运营中",
		"WGS84LNG": 119.018458,
		"WGS84LAT": 26.183920,
		"STAADDR": "福建省福州市闽侯县^鸿尾牛头山工业区",
		"CDCS": 0
	}, {
		"STAPILLZLCOUNT": 3,
		"STAPILLJLDXCOUNT": 0,
		"ID": "7f98b03f-aa61-4562-9cdc-c0ab3bbdcea7",
		"CODE": "3501210093",
		"NAME": "福州英泰第一城B区2期充电站",
		"STATYPE": null,
		"STATYPENAME": null,
		"VISIBLE": "1",
		"STAOPSTATE": "3",
		"STAOPSTATENAME": "运营中",
		"WGS84LNG": 119.204309,
		"WGS84LAT": 26.085429,
		"STAADDR": "福建省福州市闽侯县^上街镇国宾大道338号",
		"CDCS": 0
	}, {
		"STAPILLZLCOUNT": 16,
		"STAPILLJLDXCOUNT": 0,
		"ID": "357bcc98-c604-4ea1-a9d0-aea4cc61df6e",
		"CODE": "3501030010",
		"NAME": "福州鳌峰三桥华榕停车场充电站",
		"STATYPE": null,
		"STATYPENAME": null,
		"VISIBLE": "1",
		"STAOPSTATE": "3",
		"STAOPSTATENAME": "运营中",
		"WGS84LNG": 119.342345,
		"WGS84LAT": 26.061032,
		"STAADDR": "福建省福州市台江区^排尾路399号（连江中路与排尾路交叉口）",
		"CDCS": 0
	}, {
		"STAPILLZLCOUNT": 0,
		"STAPILLJLDXCOUNT": 1,
		"ID": "3f41e72b-5df2-4330-a7e8-b6d8df0cf916",
		"CODE": "3501041040",
		"NAME": "福建省建筑检测中心充电站",
		"STATYPE": null,
		"STATYPENAME": null,
		"VISIBLE": "1",
		"STAOPSTATE": "3",
		"STAOPSTATENAME": "运营中",
		"WGS84LNG": 119.258141,
		"WGS84LAT": 26.066634,
		"STAADDR": "福建省福州市仓山区^福建省福州市仓山区金塘路52号",
		"CDCS": 0
	}, {
		"STAPILLZLCOUNT": 1,
		"STAPILLJLDXCOUNT": 1,
		"ID": "7cbf2c60-4232-4709-bd18-c58bb2fc2afa",
		"CODE": "3501210075",
		"NAME": "福州青口竹兴橡胶充电站",
		"STATYPE": null,
		"STATYPENAME": null,
		"VISIBLE": "1",
		"STAOPSTATE": "3",
		"STAOPSTATENAME": "运营中",
		"WGS84LNG": 119.355113,
		"WGS84LAT": 25.884335,
		"STAADDR": "福建省福州市闽侯县^东长路与义溪路交叉口北50米",
		"CDCS": 0
	}, {
		"STAPILLZLCOUNT": 1,
		"STAPILLJLDXCOUNT": 0,
		"ID": "9f0cb610-f32a-4718-9a27-ed31a978dbcd",
		"CODE": "3501050001",
		"NAME": "绿色客运福州中旅马尾区充电站",
		"STATYPE": null,
		"STATYPENAME": null,
		"VISIBLE": "1",
		"STAOPSTATE": "3",
		"STAOPSTATENAME": "运营中",
		"WGS84LNG": 119.466601,
		"WGS84LAT": 25.992409,
		"STAADDR": "福建省福州市马尾区^罗星西路50号",
		"CDCS": 0
	}, {
		"STAPILLZLCOUNT": 0,
		"STAPILLJLDXCOUNT": 1,
		"ID": "c9e1ab36-cb44-4130-aaaf-88307c93e77f",
		"CODE": "3501210040",
		"NAME": "福州闽侯常春腾充电站",
		"STATYPE": null,
		"STATYPENAME": null,
		"VISIBLE": "1",
		"STAOPSTATE": "3",
		"STAOPSTATENAME": "运营中",
		"WGS84LNG": 119.138133,
		"WGS84LAT": 26.162036,
		"STAADDR": "福建省福州市闽侯县^甘蔗街道陈店湖路",
		"CDCS": 0
	}, {
		"STAPILLZLCOUNT": 1,
		"STAPILLJLDXCOUNT": 0,
		"ID": "f654abf0-1e69-47db-9484-28b221bb28f8",
		"CODE": "3501041034",
		"NAME": "福州汇诚汽车充电站",
		"STATYPE": null,
		"STATYPENAME": null,
		"VISIBLE": "1",
		"STAOPSTATE": "3",
		"STAOPSTATENAME": "运营中",
		"WGS84LNG": 119.266469,
		"WGS84LAT": 26.032624,
		"STAADDR": "福建省福州市仓山区^红江路8号",
		"CDCS": 0
	}, {
		"STAPILLZLCOUNT": 1,
		"STAPILLJLDXCOUNT": 1,
		"ID": "eb4ae698-7a7f-4f5b-9d74-93f1ae6257ad",
		"CODE": "3501210036",
		"NAME": "福州闽侯金利时充电站",
		"STATYPE": null,
		"STATYPENAME": null,
		"VISIBLE": "1",
		"STAOPSTATE": "3",
		"STAOPSTATENAME": "运营中",
		"WGS84LNG": 119.004392,
		"WGS84LAT": 26.165515,
		"STAADDR": "福建省福州市闽侯县^鸿尾乡官路村官路32号",
		"CDCS": 0
	}, {
		"STAPILLZLCOUNT": 1,
		"STAPILLJLDXCOUNT": 1,
		"ID": "5eb6b6ee-cee7-4c37-a474-8e377842f37e",
		"CODE": "3501810011",
		"NAME": "福州福清一都镇政府充电站",
		"STATYPE": null,
		"STATYPENAME": null,
		"VISIBLE": "1",
		"STAOPSTATE": "3",
		"STAOPSTATENAME": "运营中",
		"WGS84LNG": 119.200706,
		"WGS84LAT": 25.779713,
		"STAADDR": "福建省福州市福清市^福建省福清市一都镇直街",
		"CDCS": 0
	}, {
		"STAPILLZLCOUNT": 2,
		"STAPILLJLDXCOUNT": 3,
		"ID": "722af150-139d-4cb0-94b9-e7c4e7bd11d1",
		"CODE": "3501020021",
		"NAME": "福建汽车馆充电站",
		"STATYPE": null,
		"STATYPENAME": null,
		"VISIBLE": "1",
		"STAOPSTATE": "3",
		"STAOPSTATENAME": "运营中",
		"WGS84LNG": 119.311789,
		"WGS84LAT": 26.109143,
		"STAADDR": "福建省福州市鼓楼区^五四路260号",
		"CDCS": 0
	}, {
		"STAPILLZLCOUNT": 8,
		"STAPILLJLDXCOUNT": 0,
		"ID": "76690f4e-104d-40ab-96ba-9ba7701064e2",
		"CODE": "3501820011",
		"NAME": "长乐市榕航加油充电站",
		"STATYPE": null,
		"STATYPENAME": null,
		"VISIBLE": "1",
		"STAOPSTATE": "3",
		"STAOPSTATENAME": "运营中",
		"WGS84LNG": 119.489968,
		"WGS84LAT": 25.959757,
		"STAADDR": "福建省福州市长乐市^营前高速出口旁",
		"CDCS": 0
	}, {
		"STAPILLZLCOUNT": 4,
		"STAPILLJLDXCOUNT": 4,
		"ID": "22eba805-a0b5-4600-b10d-992e8c3492c0",
		"CODE": "3501110025",
		"NAME": "福州梅园国际大酒店充电站",
		"STATYPE": null,
		"STATYPENAME": null,
		"VISIBLE": "1",
		"STAOPSTATE": "3",
		"STAOPSTATENAME": "运营中",
		"WGS84LNG": 119.360139,
		"WGS84LAT": 26.065962,
		"STAADDR": "福建省福州市晋安区^远洋路339号梅园国际大酒店负2层D区停车位",
		"CDCS": 0
	}, {
		"STAPILLZLCOUNT": 2,
		"STAPILLJLDXCOUNT": 4,
		"ID": "50e0f619-8c4d-43a3-8992-59a00f1a28eb",
		"CODE": "3501041025",
		"NAME": "福建奋安创意园充电站",
		"STATYPE": null,
		"STATYPENAME": null,
		"VISIBLE": "1",
		"STAOPSTATE": "3",
		"STAOPSTATENAME": "运营中",
		"WGS84LNG": 119.258805,
		"WGS84LAT": 26.062506,
		"STAADDR": "福建省福州市仓山区^建新北路142号",
		"CDCS": 0
	}, {
		"STAPILLZLCOUNT": 16,
		"STAPILLJLDXCOUNT": 0,
		"ID": "48490d77-154a-4115-a3cd-5c78aad3d687",
		"CODE": "3501210091",
		"NAME": "福州大学城速8酒店充电站",
		"STATYPE": null,
		"STATYPENAME": null,
		"VISIBLE": "1",
		"STAOPSTATE": "3",
		"STAOPSTATENAME": "运营中",
		"WGS84LNG": 119.202437,
		"WGS84LAT": 26.076638,
		"STAADDR": "福建省福州市闽侯县^上街镇国宾大道276号",
		"CDCS": 0
	}, {
		"STAPILLZLCOUNT": 3,
		"STAPILLJLDXCOUNT": 6,
		"ID": "78f733bb-8585-4929-9e65-ca9cd39792a1",
		"CODE": "3501020012",
		"NAME": "福州大洋百货充电站",
		"STATYPE": null,
		"STATYPENAME": null,
		"VISIBLE": "1",
		"STAOPSTATE": "3",
		"STAOPSTATENAME": "运营中",
		"WGS84LNG": 119.307812,
		"WGS84LAT": 26.091438,
		"STAADDR": "福建省福州市鼓楼区^817路133号",
		"CDCS": 0
	}, {
		"STAPILLZLCOUNT": 1,
		"STAPILLJLDXCOUNT": 3,
		"ID": "abdd4902-17da-4183-9e83-e23f26b11de1",
		"CODE": "3501210011",
		"NAME": "福州福享汽车工业充电站",
		"STATYPE": null,
		"STATYPENAME": null,
		"VISIBLE": "1",
		"STAOPSTATE": "3",
		"STAOPSTATENAME": "运营中",
		"WGS84LNG": 119.368824,
		"WGS84LAT": 25.885106,
		"STAADDR": "福建省福州市闽侯县^青口镇宏溪路",
		"CDCS": 0
	}, {
		"STAPILLZLCOUNT": 17,
		"STAPILLJLDXCOUNT": 0,
		"ID": "c8c2fcf4-0a92-45a4-80e1-8edad0deeb2c",
		"CODE": "3501810012",
		"NAME": "福清市诺希文化中心充电站",
		"STATYPE": null,
		"STATYPENAME": null,
		"VISIBLE": "1",
		"STAOPSTATE": "3",
		"STAOPSTATENAME": "运营中",
		"WGS84LNG": 119.333669,
		"WGS84LAT": 25.732887,
		"STAADDR": "福建省福州市福清市^融侨经济技术开发区光电科技园",
		"CDCS": 0
	}, {
		"STAPILLZLCOUNT": 18,
		"STAPILLJLDXCOUNT": 0,
		"ID": "fe62f67d-f0ba-4655-9191-cfb543754b8b",
		"CODE": "3501030004",
		"NAME": "福州康驰新巴士场站充电站",
		"STATYPE": null,
		"STATYPENAME": null,
		"VISIBLE": "1",
		"STAOPSTATE": "3",
		"STAOPSTATENAME": "运营中",
		"WGS84LNG": 119.371810,
		"WGS84LAT": 26.047948,
		"STAADDR": "福建省福州市台江区^鳌峰街道鳌港路五孔水闸公交站",
		"CDCS": 0
	}, {
		"STAPILLZLCOUNT": 1,
		"STAPILLJLDXCOUNT": 0,
		"ID": "e7ada3d7-718c-4697-bce8-af5b611db60e",
		"CODE": "3501220003",
		"NAME": "福建世纪电缆充电站",
		"STATYPE": null,
		"STATYPENAME": null,
		"VISIBLE": "1",
		"STAOPSTATE": "3",
		"STAOPSTATENAME": "运营中",
		"WGS84LNG": 119.537962,
		"WGS84LAT": 26.229704,
		"STAADDR": "福建省福州市连江县^经济开发区敖江园福建世纪电缆工业园区",
		"CDCS": 0
	}, {
		"STAPILLZLCOUNT": 1,
		"STAPILLJLDXCOUNT": 0,
		"ID": "c75fdf71-fc6c-471f-8759-ddf409b9530c",
		"CODE": "3501041056",
		"NAME": "福州仓山百联食品充电站",
		"STATYPE": null,
		"STATYPENAME": null,
		"VISIBLE": "1",
		"STAOPSTATE": "3",
		"STAOPSTATENAME": "运营中",
		"WGS84LNG": 119.310348,
		"WGS84LAT": 26.008018,
		"STAADDR": "福建省福州市仓山区^盖山镇红星农场内（福建百联实业有限公司第一食品厂）",
		"CDCS": 0
	}, {
		"STAPILLZLCOUNT": 4,
		"STAPILLJLDXCOUNT": 11,
		"ID": "f07bbba2-ba82-4cb5-9322-03f5316492fb",
		"CODE": "3501110002",
		"NAME": "福州金城智谷商务园充电站",
		"STATYPE": null,
		"STATYPENAME": null,
		"VISIBLE": "1",
		"STAOPSTATE": "3",
		"STAOPSTATENAME": "运营中",
		"WGS84LNG": 119.297555,
		"WGS84LAT": 26.141024,
		"STAADDR": "福建省福州市晋安区^新店镇猫岭路9号C区",
		"CDCS": 0
	}, {
		"STAPILLZLCOUNT": 1,
		"STAPILLJLDXCOUNT": 1,
		"ID": "b3e20721-15e9-44e8-aaf4-3e8b86bc3ce8",
		"CODE": "3501810008",
		"NAME": "福州福清新信制动充电站",
		"STATYPE": null,
		"STATYPENAME": null,
		"VISIBLE": "1",
		"STAOPSTATE": "3",
		"STAOPSTATENAME": "运营中",
		"WGS84LNG": 119.432002,
		"WGS84LAT": 25.773350,
		"STAADDR": "福建省福州市福清市^洪宽工业区洪宽大道13号",
		"CDCS": 0
	}, {
		"STAPILLZLCOUNT": 2,
		"STAPILLJLDXCOUNT": 12,
		"ID": "5e4bf064-079d-4249-9457-ce07b0f21cd8",
		"CODE": "3501020018",
		"NAME": "福州融都国际大厦充电站",
		"STATYPE": null,
		"STATYPENAME": null,
		"VISIBLE": "1",
		"STAOPSTATE": "3",
		"STAOPSTATENAME": "运营中",
		"WGS84LNG": 119.313066,
		"WGS84LAT": 26.095358,
		"STAADDR": "福建省福州市鼓楼区^五四路82号融都国际大厦负一层",
		"CDCS": 0
	}, {
		"STAPILLZLCOUNT": 2,
		"STAPILLJLDXCOUNT": 0,
		"ID": "17da2188-0985-4085-b46c-bda0e9c38ef6",
		"CODE": "3501810017",
		"NAME": "福清星石一都漂流充电站",
		"STATYPE": null,
		"STATYPENAME": null,
		"VISIBLE": "1",
		"STAOPSTATE": "3",
		"STAOPSTATENAME": "运营中",
		"WGS84LNG": 119.132496,
		"WGS84LAT": 25.791882,
		"STAADDR": "福建省福州市福清市^一都镇后溪东方漂流景区",
		"CDCS": 0
	}, {
		"STAPILLZLCOUNT": 2,
		"STAPILLJLDXCOUNT": 1,
		"ID": "47d7a408-5ecd-4ac9-85d5-a20be8c72308",
		"CODE": "3501210086",
		"NAME": "福州闽侯荆溪卫生院充电站",
		"STATYPE": null,
		"STATYPENAME": null,
		"VISIBLE": "1",
		"STAOPSTATE": "3",
		"STAOPSTATENAME": "运营中",
		"WGS84LNG": 119.188945,
		"WGS84LAT": 26.133315,
		"STAADDR": "福建省福州市闽侯县^荆溪镇徐家村269号",
		"CDCS": 0
	}, {
		"STAPILLZLCOUNT": 2,
		"STAPILLJLDXCOUNT": 0,
		"ID": "6672589d-76f2-417d-b383-98b626da80a6",
		"CODE": "3501250010",
		"NAME": "福州永泰幸福小镇充电站",
		"STATYPE": null,
		"STATYPENAME": null,
		"VISIBLE": "1",
		"STAOPSTATE": "3",
		"STAOPSTATENAME": "运营中",
		"WGS84LNG": 118.932477,
		"WGS84LAT": 25.922621,
		"STAADDR": "福建省福州市永泰县^福州市永泰县清凉镇北斗村1号幸福庄园",
		"CDCS": 0
	}, {
		"STAPILLZLCOUNT": 0,
		"STAPILLJLDXCOUNT": 1,
		"ID": "9c1f55c2-2b0d-4ee6-b9b7-df9e7df561f7",
		"CODE": "3501210006",
		"NAME": "福州许瑞兴交通器材充电站",
		"STATYPE": null,
		"STATYPENAME": null,
		"VISIBLE": "1",
		"STAOPSTATE": "3",
		"STAOPSTATENAME": "运营中",
		"WGS84LNG": 119.367924,
		"WGS84LAT": 25.880662,
		"STAADDR": "福建省福州市闽侯县^青口镇东福路许瑞兴（福州）交通器材有限公司",
		"CDCS": 0
	}, {
		"STAPILLZLCOUNT": 0,
		"STAPILLJLDXCOUNT": 1,
		"ID": "03ed43ec-2cdd-4fd7-be6a-8f5755723841",
		"CODE": "3501210023",
		"NAME": "福州福享汽车厂充电站",
		"STATYPE": null,
		"STATYPENAME": null,
		"VISIBLE": "1",
		"STAOPSTATE": "3",
		"STAOPSTATENAME": "运营中",
		"WGS84LNG": 119.368854,
		"WGS84LAT": 25.885227,
		"STAADDR": "福建省福州市闽侯县^福州市闽候县青口镇",
		"CDCS": 0
	}, {
		"STAPILLZLCOUNT": 4,
		"STAPILLJLDXCOUNT": 0,
		"ID": "3abb6e29-e38c-4b38-8831-2829c504bb84",
		"CODE": "3501810010",
		"NAME": "福清裕荣汇购物中心充电站",
		"STATYPE": null,
		"STATYPENAME": null,
		"VISIBLE": "1",
		"STAOPSTATE": "3",
		"STAOPSTATENAME": "运营中",
		"WGS84LNG": 119.358772,
		"WGS84LAT": 25.726969,
		"STAADDR": "福建省福州市福清市^福和大道裕荣汇购物中心B2",
		"CDCS": 0
	}, {
		"STAPILLZLCOUNT": 0,
		"STAPILLJLDXCOUNT": 1,
		"ID": "ba7a6528-0968-4465-b366-ca76c18c438d",
		"CODE": "3501210043",
		"NAME": "福州宝井钢材充电站",
		"STATYPE": null,
		"STATYPENAME": null,
		"VISIBLE": "1",
		"STAOPSTATE": "3",
		"STAOPSTATENAME": "运营中",
		"WGS84LNG": 119.365019,
		"WGS84LAT": 25.903758,
		"STAADDR": "福建省福州市闽侯县^青口投资区福州萱裕金属配套有限公司",
		"CDCS": 0
	}, {
		"STAPILLZLCOUNT": 0,
		"STAPILLJLDXCOUNT": 1,
		"ID": "c32fb653-d5f1-4997-b391-e5c27e0afaa6",
		"CODE": "3501810019",
		"NAME": "福清清华物流园充电站",
		"STATYPE": null,
		"STATYPENAME": null,
		"VISIBLE": "1",
		"STAOPSTATE": "3",
		"STAOPSTATENAME": "运营中",
		"WGS84LNG": 119.330513,
		"WGS84LAT": 25.731239,
		"STAADDR": "福建省福州市福清市^清荣大道1号清华科技楼",
		"CDCS": 0
	}, {
		"STAPILLZLCOUNT": 0,
		"STAPILLJLDXCOUNT": 1,
		"ID": "9c74dc22-4a70-48a2-b0d8-5f09a178ad98",
		"CODE": "3501210007",
		"NAME": "福州福澳工艺品充电站",
		"STATYPE": null,
		"STATYPENAME": null,
		"VISIBLE": "1",
		"STAOPSTATE": "3",
		"STAOPSTATENAME": "运营中",
		"WGS84LNG": 119.138180,
		"WGS84LAT": 26.116910,
		"STAADDR": "福建省福州市闽侯县^竹岐乡榕东村398号",
		"CDCS": 0
	}, {
		"STAPILLZLCOUNT": 7,
		"STAPILLJLDXCOUNT": 29,
		"ID": "e0372f9f-c7a0-46c2-90e3-297bbdcfc321",
		"CODE": "3501041036",
		"NAME": "福州财贸服装城充电站",
		"STATYPE": null,
		"STATYPENAME": null,
		"VISIBLE": "1",
		"STAOPSTATE": "3",
		"STAOPSTATENAME": "运营中",
		"WGS84LNG": 119.304502,
		"WGS84LAT": 26.017605,
		"STAADDR": "福建省福州市仓山区^齐安路756号",
		"CDCS": 0
	}, {
		"STAPILLZLCOUNT": 2,
		"STAPILLJLDXCOUNT": 8,
		"ID": "f348c3f3-1dee-4855-9b9b-86516e73982b",
		"CODE": "3501110011",
		"NAME": "福州索高广场充电站",
		"STATYPE": null,
		"STATYPENAME": null,
		"VISIBLE": "1",
		"STAOPSTATE": "3",
		"STAOPSTATENAME": "运营中",
		"WGS84LNG": 119.313720,
		"WGS84LAT": 26.137559,
		"STAADDR": "福建省福州市晋安区^秀山路245号",
		"CDCS": 0
	}, {
		"STAPILLZLCOUNT": 2,
		"STAPILLJLDXCOUNT": 3,
		"ID": "f0c11750-da6e-4507-82b0-129cf1af09f5",
		"CODE": "3501210083",
		"NAME": "福州英泰第一城B区充电站",
		"STATYPE": null,
		"STATYPENAME": null,
		"VISIBLE": "1",
		"STAOPSTATE": "3",
		"STAOPSTATENAME": "运营中",
		"WGS84LNG": 119.197757,
		"WGS84LAT": 26.079678,
		"STAADDR": "福建省福州市闽侯县^上街镇国宾大道338号",
		"CDCS": 0
	}, {
		"STAPILLZLCOUNT": 0,
		"STAPILLJLDXCOUNT": 6,
		"ID": "a1bc8eef-a54b-475c-babb-4d7143909230",
		"CODE": "3501020027",
		"NAME": "福建省商务厅充电站",
		"STATYPE": null,
		"STATYPENAME": null,
		"VISIBLE": "1",
		"STAOPSTATE": "3",
		"STAOPSTATENAME": "运营中",
		"WGS84LNG": 119.292173,
		"WGS84LAT": 26.108117,
		"STAADDR": "福建省福州市鼓楼区^铜盘路118号福建省商务厅",
		"CDCS": 0
	}, {
		"STAPILLZLCOUNT": 1,
		"STAPILLJLDXCOUNT": 1,
		"ID": "add19556-d80e-4322-afb2-2954c1ce31ee",
		"CODE": "3501210049",
		"NAME": "福州西城电子充电站",
		"STATYPE": null,
		"STATYPENAME": null,
		"VISIBLE": "1",
		"STAOPSTATE": "3",
		"STAOPSTATENAME": "运营中",
		"WGS84LNG": 119.262212,
		"WGS84LAT": 26.110098,
		"STAADDR": "福建省福州市闽侯县^铜盘路软件大道89号福州软件园C区19号楼",
		"CDCS": 0
	}, {
		"STAPILLZLCOUNT": 0,
		"STAPILLJLDXCOUNT": 1,
		"ID": "6379c073-2712-4c0f-9438-e372addb8c54",
		"CODE": "3501110005",
		"NAME": "福州洋里水厂停车场充电站",
		"STATYPE": null,
		"STATYPENAME": null,
		"VISIBLE": "1",
		"STAOPSTATE": "3",
		"STAOPSTATENAME": "运营中",
		"WGS84LNG": 119.375434,
		"WGS84LAT": 26.052600,
		"STAADDR": "福建省福州市晋安区^鼓山镇洋里路16号",
		"CDCS": 0
	}, {
		"STAPILLZLCOUNT": 1,
		"STAPILLJLDXCOUNT": 0,
		"ID": "b9ae5a58-343a-4cfe-b784-23bff5ba1672",
		"CODE": "3501041032",
		"NAME": "福州平行车行汽车充电站",
		"STATYPE": null,
		"STATYPENAME": null,
		"VISIBLE": "1",
		"STAOPSTATE": "3",
		"STAOPSTATENAME": "运营中",
		"WGS84LNG": 119.358442,
		"WGS84LAT": 26.026375,
		"STAADDR": "福建省福州市仓山区^盖山投资区高仕路7号",
		"CDCS": 0
	}, {
		"STAPILLZLCOUNT": 6,
		"STAPILLJLDXCOUNT": 0,
		"ID": "a9ed919a-6b15-47d2-a7eb-d7e639d05e26",
		"CODE": "3501210097",
		"NAME": "闽侯上街镇马保村充电站",
		"STATYPE": null,
		"STATYPENAME": null,
		"VISIBLE": "1",
		"STAOPSTATE": "3",
		"STAOPSTATENAME": "运营中",
		"WGS84LNG": 119.225431,
		"WGS84LAT": 26.023526,
		"STAADDR": "福建省福州市闽侯县^新保路",
		"CDCS": 0
	}, {
		"STAPILLZLCOUNT": 0,
		"STAPILLJLDXCOUNT": 1,
		"ID": "2fee8084-8aa7-4a05-9276-052953a431f4",
		"CODE": "3501810021",
		"NAME": "福清鑫隆新能源充电站",
		"STATYPE": null,
		"STATYPENAME": null,
		"VISIBLE": "1",
		"STAOPSTATE": "3",
		"STAOPSTATENAME": "运营中",
		"WGS84LNG": 119.310169,
		"WGS84LAT": 25.618092,
		"STAADDR": "福建省福州市福清市^渔溪镇福檀红木家具家艺装饰东（324国道）",
		"CDCS": 0
	}, {
		"STAPILLZLCOUNT": 2,
		"STAPILLJLDXCOUNT": 2,
		"ID": "14d6e75a-609b-4109-a9a8-bfb4b1aeff31",
		"CODE": "3501220001",
		"NAME": "福州顺兴出行充电站",
		"STATYPE": null,
		"STATYPENAME": null,
		"VISIBLE": "1",
		"STAOPSTATE": "3",
		"STAOPSTATENAME": "运营中",
		"WGS84LNG": 119.530335,
		"WGS84LAT": 26.218242,
		"STAADDR": "福建省福州市连江县^凤城镇青霞路兆龙城168号",
		"CDCS": 0
	}, {
		"STAPILLZLCOUNT": 0,
		"STAPILLJLDXCOUNT": 24,
		"ID": "370f29cb-6b91-492d-b48e-a49b15932b43",
		"CODE": "3501280017",
		"NAME": "平潭金井湾商务营运中心7号楼充电站",
		"STATYPE": null,
		"STATYPENAME": null,
		"VISIBLE": "1",
		"STAOPSTATE": "3",
		"STAOPSTATENAME": "运营中",
		"WGS84LNG": 119.716790,
		"WGS84LAT": 25.489010,
		"STAADDR": "福建省福州市平潭县^金井湾商务营运中心7号楼地下车库",
		"CDCS": 0
	}, {
		"STAPILLZLCOUNT": 2,
		"STAPILLJLDXCOUNT": 2,
		"ID": "d49daaf6-a677-41f8-8377-021aeb7a6340",
		"CODE": "3501220006",
		"NAME": "福州连江金升汽车充电站",
		"STATYPE": null,
		"STATYPENAME": null,
		"VISIBLE": "1",
		"STAOPSTATE": "3",
		"STAOPSTATENAME": "运营中",
		"WGS84LNG": 119.536984,
		"WGS84LAT": 26.220202,
		"STAADDR": "福建省福州市连江县^104国道金升车居广场",
		"CDCS": 0
	}, {
		"STAPILLZLCOUNT": 3,
		"STAPILLJLDXCOUNT": 0,
		"ID": "63e38caf-ece0-47ed-af6f-b505c2fce978",
		"CODE": "3501110022",
		"NAME": "福州索高广场二期充电站",
		"STATYPE": null,
		"STATYPENAME": null,
		"VISIBLE": "1",
		"STAOPSTATE": "3",
		"STAOPSTATENAME": "运营中",
		"WGS84LNG": 119.312894,
		"WGS84LAT": 26.137567,
		"STAADDR": "福建省福州市晋安区^秀山路245号",
		"CDCS": 0
	}, {
		"STAPILLZLCOUNT": 0,
		"STAPILLJLDXCOUNT": 5,
		"ID": "dc9522db-a334-4131-a1d6-351189be6c44",
		"CODE": "3501020004",
		"NAME": "福州日报社充电站",
		"STATYPE": null,
		"STATYPENAME": null,
		"VISIBLE": "1",
		"STAOPSTATE": "3",
		"STAOPSTATENAME": "运营中",
		"WGS84LNG": 119.302766,
		"WGS84LAT": 26.086604,
		"STAADDR": "福建省福州市鼓楼区^小柳路85号",
		"CDCS": 0
	}, {
		"STAPILLZLCOUNT": 2,
		"STAPILLJLDXCOUNT": 0,
		"ID": "ecff9059-a6e6-4fcb-b214-c36530c369aa",
		"CODE": "3501250007",
		"NAME": "永泰天门山度假酒店充电站",
		"STATYPE": null,
		"STATYPENAME": null,
		"VISIBLE": "1",
		"STAOPSTATE": "3",
		"STAOPSTATENAME": "运营中",
		"WGS84LNG": 119.025838,
		"WGS84LAT": 25.829270,
		"STAADDR": "福建省福州市永泰县^葛岭镇溪洋村天门山景区内(距天门山售票处200米处）",
		"CDCS": 0
	}, {
		"STAPILLZLCOUNT": 2,
		"STAPILLJLDXCOUNT": 0,
		"ID": "3de0d283-6412-44d8-9f9d-76f23647fb7f",
		"CODE": "3501210082",
		"NAME": "福州青口德行天下充电站",
		"STATYPE": null,
		"STATYPENAME": null,
		"VISIBLE": "1",
		"STAOPSTATE": "3",
		"STAOPSTATENAME": "运营中",
		"WGS84LNG": 119.368432,
		"WGS84LAT": 25.890136,
		"STAADDR": "福建省福州市闽侯县^青口镇324国道",
		"CDCS": 0
	}, {
		"STAPILLZLCOUNT": 1,
		"STAPILLJLDXCOUNT": 1,
		"ID": "19b79cbd-8313-43a9-9b4c-6a408803d4c9",
		"CODE": "3501210062",
		"NAME": "福州中端电器充电站",
		"STATYPE": null,
		"STATYPENAME": null,
		"VISIBLE": "1",
		"STAOPSTATE": "3",
		"STAOPSTATENAME": "运营中",
		"WGS84LNG": 119.366622,
		"WGS84LAT": 25.882064,
		"STAADDR": "福建省福州市闽侯县^东福路",
		"CDCS": 0
	}, {
		"STAPILLZLCOUNT": 0,
		"STAPILLJLDXCOUNT": 24,
		"ID": "19bfe2fd-5664-4c64-b9c2-74ba452386d9",
		"CODE": "3501280016",
		"NAME": "平潭金井湾商务营运中心1号楼充电站",
		"STATYPE": null,
		"STATYPENAME": null,
		"VISIBLE": "1",
		"STAOPSTATE": "3",
		"STAOPSTATENAME": "运营中",
		"WGS84LNG": 119.715628,
		"WGS84LAT": 25.489537,
		"STAADDR": "福建省福州市平潭县^金井湾商务营运中心1号楼地下车库",
		"CDCS": 0
	}, {
		"STAPILLZLCOUNT": 1,
		"STAPILLJLDXCOUNT": 4,
		"ID": "ba0ba4bf-b11a-4fae-91e5-68b05be90fdc",
		"CODE": "3501020009",
		"NAME": "福州丞相坊停车场充电站",
		"STATYPE": null,
		"STATYPENAME": null,
		"VISIBLE": "1",
		"STAOPSTATE": "3",
		"STAOPSTATENAME": "运营中",
		"WGS84LNG": 119.277127,
		"WGS84LAT": 26.115096,
		"STAADDR": "福建省福州市鼓楼区^丞相坊路56号",
		"CDCS": 0
	}, {
		"STAPILLZLCOUNT": 4,
		"STAPILLJLDXCOUNT": 1,
		"ID": "7294ebed-8605-4960-83ef-7494df1366ea",
		"CODE": "3501820016",
		"NAME": "福州创源针纺充电站",
		"STATYPE": null,
		"STATYPENAME": null,
		"VISIBLE": "1",
		"STAOPSTATE": "3",
		"STAOPSTATENAME": "运营中",
		"WGS84LNG": 119.513282,
		"WGS84LAT": 25.978440,
		"STAADDR": "福建省福州市长乐市^航兴路与航通路交叉口",
		"CDCS": 0
	}, {
		"STAPILLZLCOUNT": 4,
		"STAPILLJLDXCOUNT": 2,
		"ID": "1470217a-7bce-489c-b66b-6fab2d8f26bc",
		"CODE": "3501250001",
		"NAME": "福州永泰香米拉酒店充电站",
		"STATYPE": null,
		"STATYPENAME": null,
		"VISIBLE": "1",
		"STAOPSTATE": "3",
		"STAOPSTATENAME": "运营中",
		"WGS84LNG": 118.957103,
		"WGS84LAT": 25.861426,
		"STAADDR": "福建省福州市永泰县^洋亭路",
		"CDCS": 0
	}, {
		"STAPILLZLCOUNT": 0,
		"STAPILLJLDXCOUNT": 0,
		"ID": "6132b1b4-4037-4433-beec-959b3a1eab91",
		"CODE": "3501210005",
		"NAME": "福州杰诚公司停车场充电站",
		"STATYPE": null,
		"STATYPENAME": null,
		"VISIBLE": "1",
		"STAOPSTATE": "3",
		"STAOPSTATENAME": "运营中",
		"WGS84LNG": 119.232075,
		"WGS84LAT": 25.998440,
		"STAADDR": "福建省福州市闽侯县^闽侯南屿镇后山村它山36号",
		"CDCS": 0
	}, {
		"STAPILLZLCOUNT": 0,
		"STAPILLJLDXCOUNT": 2,
		"ID": "08e7ac0d-359c-4ef1-97a6-b5801a8f2110",
		"CODE": "3501810015",
		"NAME": "天富长安新能源汽车充电站",
		"STATYPE": null,
		"STATYPENAME": null,
		"VISIBLE": "1",
		"STAOPSTATE": "3",
		"STAOPSTATENAME": "运营中",
		"WGS84LNG": 119.386597,
		"WGS84LAT": 25.722894,
		"STAADDR": "福建省福州市福清市江滨路30号^江滨路30号",
		"CDCS": 0
	}, {
		"STAPILLZLCOUNT": 4,
		"STAPILLJLDXCOUNT": 6,
		"ID": "7c779a3d-440f-4ef9-a733-4e977f5dbde9",
		"CODE": "3501020032",
		"NAME": "福建省商务厅二期充电站",
		"STATYPE": null,
		"STATYPENAME": null,
		"VISIBLE": "1",
		"STAOPSTATE": "3",
		"STAOPSTATENAME": "运营中",
		"WGS84LNG": 119.292505,
		"WGS84LAT": 26.107732,
		"STAADDR": "福建省福州市鼓楼区^铜盘路118号 福建省商务厅",
		"CDCS": 0
	}, {
		"STAPILLZLCOUNT": 1,
		"STAPILLJLDXCOUNT": 0,
		"ID": "ec8be3e6-9464-43d2-8e3a-3df0533bc557",
		"CODE": "3501041053",
		"NAME": "福州闽丰汽车广场充电站",
		"STATYPE": null,
		"STATYPENAME": null,
		"VISIBLE": "1",
		"STAOPSTATE": "3",
		"STAOPSTATENAME": "运营中",
		"WGS84LNG": 119.353814,
		"WGS84LAT": 26.021007,
		"STAADDR": "福建省福州市仓山区^则徐大道631号闽丰汽车广场内奇瑞新能源4S店口",
		"CDCS": 0
	}, {
		"STAPILLZLCOUNT": 0,
		"STAPILLJLDXCOUNT": 1,
		"ID": "60b7b0b1-a2e0-48ba-aa2c-b34300e1929d",
		"CODE": "3501210037",
		"NAME": "福州闽侯双豪纸品充电站",
		"STATYPE": null,
		"STATYPENAME": null,
		"VISIBLE": "1",
		"STAOPSTATE": "3",
		"STAOPSTATENAME": "运营中",
		"WGS84LNG": 119.144151,
		"WGS84LAT": 26.161780,
		"STAADDR": "福建省福州市闽侯县^甘蔗街道官莊路6号",
		"CDCS": 0
	}, {
		"STAPILLZLCOUNT": 2,
		"STAPILLJLDXCOUNT": 2,
		"ID": "80135cef-59d3-4ecf-aa8d-a284da91c752",
		"CODE": "3501110010",
		"NAME": "福州汇雅温泉酒店充电站",
		"STATYPE": null,
		"STATYPENAME": null,
		"VISIBLE": "1",
		"STAOPSTATE": "3",
		"STAOPSTATENAME": "运营中",
		"WGS84LNG": 119.365377,
		"WGS84LAT": 26.237064,
		"STAADDR": "福建省福州市晋安区^桂湖融汇温泉城汇雅温泉精品酒店",
		"CDCS": 0
	}, {
		"STAPILLZLCOUNT": 2,
		"STAPILLJLDXCOUNT": 2,
		"ID": "0622310b-a6dc-4c1f-971d-1b6a8f8f5f41",
		"CODE": "3501250002",
		"NAME": "永泰青云山御温泉酒店充电站",
		"STATYPE": null,
		"STATYPENAME": null,
		"VISIBLE": "1",
		"STAOPSTATE": "3",
		"STAOPSTATENAME": "运营中",
		"WGS84LNG": 118.968296,
		"WGS84LAT": 25.789400,
		"STAADDR": "福建省福州市永泰县^岭路乡潭后村转头山",
		"CDCS": 0
	}, {
		"STAPILLZLCOUNT": 0,
		"STAPILLJLDXCOUNT": 1,
		"ID": "b223d4d1-54c4-46e5-b7d7-4b536cba6ffb",
		"CODE": "3501210090",
		"NAME": "福州华威社会化考场充电站",
		"STATYPE": null,
		"STATYPENAME": null,
		"VISIBLE": "1",
		"STAOPSTATE": "3",
		"STAOPSTATENAME": "运营中",
		"WGS84LNG": 119.292025,
		"WGS84LAT": 25.956177,
		"STAADDR": "福建省福州市闽侯县^南通镇淇源东南方向200米华威社会化驾驶人考试场",
		"CDCS": 0
	}, {
		"STAPILLZLCOUNT": 1,
		"STAPILLJLDXCOUNT": 2,
		"ID": "48097294-8064-4b4c-a218-42543231454c",
		"CODE": "3501110016",
		"NAME": "福州五四北泰禾广场充电站",
		"STATYPE": null,
		"STATYPENAME": null,
		"VISIBLE": "1",
		"STAOPSTATE": "3",
		"STAOPSTATENAME": "运营中",
		"WGS84LNG": 119.329897,
		"WGS84LAT": 26.145666,
		"STAADDR": "福建省福州市晋安区^坂中路6号",
		"CDCS": 0
	}, {
		"STAPILLZLCOUNT": 1,
		"STAPILLJLDXCOUNT": 6,
		"ID": "5d484bc1-cfb6-4185-8326-c1af1fe7ba94",
		"CODE": "3501110014",
		"NAME": "福州泰达汽车充电站",
		"STATYPE": null,
		"STATYPENAME": null,
		"VISIBLE": "1",
		"STAOPSTATE": "3",
		"STAOPSTATENAME": "运营中",
		"WGS84LNG": 119.340962,
		"WGS84LAT": 26.085651,
		"STAADDR": "福建省福州市晋安区^连江北路530号",
		"CDCS": 0
	}, {
		"STAPILLZLCOUNT": 16,
		"STAPILLJLDXCOUNT": 12,
		"ID": "2ee22b58-c652-4802-aa48-217204acddc6",
		"CODE": "3501280010",
		"NAME": "平潭龙凤头景区充电站",
		"STATYPE": null,
		"STATYPENAME": null,
		"VISIBLE": "1",
		"STAOPSTATE": "3",
		"STAOPSTATENAME": "运营中",
		"WGS84LNG": 119.813676,
		"WGS84LAT": 25.507595,
		"STAADDR": "福建省福州市平潭县^平潭综合实验区环岛路龙凤头景区公共停车场",
		"CDCS": 0
	}, {
		"STAPILLZLCOUNT": 0,
		"STAPILLJLDXCOUNT": 1,
		"ID": "a6c3a2d2-a2e7-4021-a53f-e921deac3e6d",
		"CODE": "3501210028",
		"NAME": "福州青口麦特新充电站",
		"STATYPE": null,
		"STATYPENAME": null,
		"VISIBLE": "1",
		"STAOPSTATE": "3",
		"STAOPSTATENAME": "运营中",
		"WGS84LNG": 119.349391,
		"WGS84LAT": 25.909729,
		"STAADDR": "福建省福州市闽侯县^青口镇合金路3号福建麦特新铝业科技有限公司",
		"CDCS": 0
	}, {
		"STAPILLZLCOUNT": 0,
		"STAPILLJLDXCOUNT": 1,
		"ID": "28d9d513-7712-454c-9bd0-bb2cce5bb3e8",
		"CODE": "3501210076",
		"NAME": "福州青口值达塑胶充电站",
		"STATYPE": null,
		"STATYPENAME": null,
		"VISIBLE": "1",
		"STAOPSTATE": "3",
		"STAOPSTATENAME": "运营中",
		"WGS84LNG": 119.390498,
		"WGS84LAT": 25.895337,
		"STAADDR": "福建省福州市闽侯县^青口投资区东水路",
		"CDCS": 0
	}, {
		"STAPILLZLCOUNT": 2,
		"STAPILLJLDXCOUNT": 12,
		"ID": "751666a7-32a2-482e-960e-61034e8bc2e5",
		"CODE": "3501041018",
		"NAME": "福州仓山同拓伟业充电站",
		"STATYPE": null,
		"STATYPENAME": null,
		"VISIBLE": "1",
		"STAOPSTATE": "3",
		"STAOPSTATENAME": "运营中",
		"WGS84LNG": 119.267382,
		"WGS84LAT": 26.033440,
		"STAADDR": "福建省福州市仓山区^高宅路与红江路交叉处",
		"CDCS": 0
	}, {
		"STAPILLZLCOUNT": 4,
		"STAPILLJLDXCOUNT": 12,
		"ID": "23d25e9c-15fc-46b7-8560-bf0408b680f0",
		"CODE": "3501020022",
		"NAME": "福建省工商局充电站",
		"STATYPE": null,
		"STATYPENAME": null,
		"VISIBLE": "1",
		"STAOPSTATE": "3",
		"STAOPSTATENAME": "运营中",
		"WGS84LNG": 119.311751,
		"WGS84LAT": 26.120698,
		"STAADDR": "福建省福州市鼓楼区^五四路358号",
		"CDCS": 0
	}, {
		"STAPILLZLCOUNT": 0,
		"STAPILLJLDXCOUNT": 1,
		"ID": "63498e91-40ce-49b5-8b80-6644b5bbedb0",
		"CODE": "3501240003",
		"NAME": "福州青口和胜充电站",
		"STATYPE": null,
		"STATYPENAME": null,
		"VISIBLE": "1",
		"STAOPSTATE": "3",
		"STAOPSTATENAME": "运营中",
		"WGS84LNG": 118.778803,
		"WGS84LAT": 26.212273,
		"STAADDR": "福建省福州市闽清县^青口投资区福州和胜汽车配件有限公司",
		"CDCS": 0
	}, {
		"STAPILLZLCOUNT": 0,
		"STAPILLJLDXCOUNT": 1,
		"ID": "e36dd4d4-538e-4b9f-9aad-ae1c01bc570f",
		"CODE": "3501210021",
		"NAME": "福州士林机电充电站",
		"STATYPE": null,
		"STATYPENAME": null,
		"VISIBLE": "1",
		"STAOPSTATE": "3",
		"STAOPSTATENAME": "运营中",
		"WGS84LNG": 119.394059,
		"WGS84LAT": 25.891803,
		"STAADDR": "福建省福州市闽侯县^青口镇白水路",
		"CDCS": 0
	}, {
		"STAPILLZLCOUNT": 0,
		"STAPILLJLDXCOUNT": 24,
		"ID": "6dd6e21b-9f8d-43d8-835b-2f8b60069dc8",
		"CODE": "3501280018",
		"NAME": "平潭金井湾商务营运中心6号楼充电站",
		"STATYPE": null,
		"STATYPENAME": null,
		"VISIBLE": "1",
		"STAOPSTATE": "3",
		"STAOPSTATENAME": "运营中",
		"WGS84LNG": 119.717396,
		"WGS84LAT": 25.487061,
		"STAADDR": "福建省福州市平潭县^金井湾商务营运中心6号楼地下车库",
		"CDCS": 0
	}],
	"staListCount": 148
}