{
	"staList": [{
		"STAPILLZLCOUNT": 12,
		"STAPILLJLDXCOUNT": 12,
		"ID": "f9613211-9478-476e-a30f-3ef9d008e0ef",
		"CODE": "3507820018",
		"NAME": "武夷山南源岭停车场充电站",
		"STATYPE": null,
		"STATYPENAME": null,
		"VISIBLE": "1",
		"STAOPSTATE": "3",
		"STAOPSTATENAME": "运营中",
		"WGS84LNG": 117.998852,
		"WGS84LAT": 27.615838,
		"STAADDR": "福建省南平市武夷山市^S303",
		"CDCS": 0
	}, {
		"STAPILLZLCOUNT": 0,
		"STAPILLJLDXCOUNT": 1,
		"ID": "8a720605-1ae5-4192-bd8e-22a7eedd3cbe",
		"CODE": "3507840013",
		"NAME": "建阳区万辉汽修充电站",
		"STATYPE": null,
		"STATYPENAME": null,
		"VISIBLE": "1",
		"STAOPSTATE": "3",
		"STAOPSTATENAME": "运营中",
		"WGS84LNG": 118.117568,
		"WGS84LAT": 27.364380,
		"STAADDR": "福建省南平市建阳区^嘉禾北路辅路",
		"CDCS": 0
	}, {
		"STAPILLZLCOUNT": 2,
		"STAPILLJLDXCOUNT": 2,
		"ID": "6e7f7fd3-c3f6-42e6-9ccc-d3bbeb236884",
		"CODE": "3507820009",
		"NAME": "武夷山泓林大酒店充电站",
		"STATYPE": null,
		"STATYPENAME": null,
		"VISIBLE": "1",
		"STAOPSTATE": "3",
		"STAOPSTATENAME": "运营中",
		"WGS84LNG": 117.994167,
		"WGS84LAT": 27.647186,
		"STAADDR": "福建省南平市武夷山市^武夷山三姑度假区九曲溪路65号",
		"CDCS": 0
	}, {
		"STAPILLZLCOUNT": 9,
		"STAPILLJLDXCOUNT": 0,
		"ID": "c24cb0f5-0dc2-4808-bbe4-e191e836283e",
		"CODE": "3507820002",
		"NAME": "武夷山武之旅客运充电站",
		"STATYPE": null,
		"STATYPENAME": null,
		"VISIBLE": "1",
		"STAOPSTATE": "3",
		"STAOPSTATENAME": "运营中",
		"WGS84LNG": 117.995137,
		"WGS84LAT": 27.617931,
		"STAADDR": "福建省南平市武夷山市^度假区",
		"CDCS": 0
	}, {
		"STAPILLZLCOUNT": 0,
		"STAPILLJLDXCOUNT": 1,
		"ID": "15ee579a-2f71-497d-bf33-5da22b29eb6a",
		"CODE": "3507820006",
		"NAME": "武夷圣远酒店充电站",
		"STATYPE": null,
		"STATYPENAME": null,
		"VISIBLE": "1",
		"STAOPSTATE": "3",
		"STAOPSTATENAME": "运营中",
		"WGS84LNG": 117.993253,
		"WGS84LAT": 27.659371,
		"STAADDR": "福建省南平市武夷山市^武夷山度假区天游峰路8号",
		"CDCS": 0
	}, {
		"STAPILLZLCOUNT": 0,
		"STAPILLJLDXCOUNT": 1,
		"ID": "ee66056d-b67f-4685-8977-db38b809d34f",
		"CODE": "3507820004",
		"NAME": "武夷山远华酒店充电站",
		"STATYPE": null,
		"STATYPENAME": null,
		"VISIBLE": "1",
		"STAOPSTATE": "3",
		"STAOPSTATENAME": "运营中",
		"WGS84LNG": 117.995302,
		"WGS84LAT": 27.659234,
		"STAADDR": "福建省南平市武夷山市^天游峰路18号",
		"CDCS": 0
	}, {
		"STAPILLZLCOUNT": 1,
		"STAPILLJLDXCOUNT": 0,
		"ID": "fd91baea-fa78-434a-9029-91b630d0c3f8",
		"CODE": "3507020005",
		"NAME": "南平原动力汽车城充电站",
		"STATYPE": null,
		"STATYPENAME": null,
		"VISIBLE": "1",
		"STAOPSTATE": "3",
		"STAOPSTATENAME": "运营中",
		"WGS84LNG": 118.141417,
		"WGS84LAT": 26.601240,
		"STAADDR": "福建省南平市延平区^西芹镇高新区",
		"CDCS": 0
	}, {
		"STAPILLZLCOUNT": 3,
		"STAPILLJLDXCOUNT": 2,
		"ID": "a28c8f52-b495-4607-bc7e-863625f52fbf",
		"CODE": "3507840009",
		"NAME": "建阳区御景国际酒店充电站",
		"STATYPE": null,
		"STATYPENAME": null,
		"VISIBLE": "1",
		"STAOPSTATE": "3",
		"STAOPSTATENAME": "运营中",
		"WGS84LNG": 118.108175,
		"WGS84LAT": 27.360589,
		"STAADDR": "福建省南平市建阳区^建阳区朱熹大道3369号酒店停车场内",
		"CDCS": 0
	}, {
		"STAPILLZLCOUNT": 2,
		"STAPILLJLDXCOUNT": 0,
		"ID": "40a3dba5-5cbf-4294-8fdd-8592a830f8fa",
		"CODE": "3507230001",
		"NAME": "福建豪汇二手车充电站",
		"STATYPE": null,
		"STATYPENAME": null,
		"VISIBLE": "1",
		"STAOPSTATE": "3",
		"STAOPSTATENAME": "运营中",
		"WGS84LNG": 117.354335,
		"WGS84LAT": 27.555967,
		"STAADDR": "福建省南平市光泽县^坪山路8号",
		"CDCS": 0
	}, {
		"STAPILLZLCOUNT": 11,
		"STAPILLJLDXCOUNT": 0,
		"ID": "144b1a3c-9d49-45cd-ac9c-fe7b8335ec6b",
		"CODE": "3507820016",
		"NAME": "武夷山火车站站前广场充电站",
		"STATYPE": null,
		"STATYPENAME": null,
		"VISIBLE": "1",
		"STAOPSTATE": "3",
		"STAOPSTATENAME": "运营中",
		"WGS84LNG": 118.036067,
		"WGS84LAT": 27.736625,
		"STAADDR": "福建省南平市武夷山市^站区路",
		"CDCS": 0
	}, {
		"STAPILLZLCOUNT": 9,
		"STAPILLJLDXCOUNT": 0,
		"ID": "53bb1125-464e-4dea-97af-ff8044f76076",
		"CODE": "3507020023",
		"NAME": "南平公交江南第一城充电站",
		"STATYPE": null,
		"STATYPENAME": null,
		"VISIBLE": "1",
		"STAOPSTATE": "3",
		"STAOPSTATENAME": "运营中",
		"WGS84LNG": 118.225893,
		"WGS84LAT": 26.620402,
		"STAADDR": "福建省南平市延平区^八仙村南304米",
		"CDCS": 0
	}, {
		"STAPILLZLCOUNT": 0,
		"STAPILLJLDXCOUNT": 1,
		"ID": "283fcb00-360b-4d09-acd6-c78c1044992e",
		"CODE": "3507820005",
		"NAME": "武夷山山海蓝湾国际充电站",
		"STATYPE": null,
		"STATYPENAME": null,
		"VISIBLE": "1",
		"STAOPSTATE": "3",
		"STAOPSTATENAME": "运营中",
		"WGS84LNG": 117.995348,
		"WGS84LAT": 27.585387,
		"STAADDR": "福建省南平市武夷山市^武夷山仙店工业园区蓝湾国际停车场（省道303与仙店路交叉口）",
		"CDCS": 0
	}, {
		"STAPILLZLCOUNT": 4,
		"STAPILLJLDXCOUNT": 0,
		"ID": "e58c5157-68b9-4953-bcac-22c6b76889b0",
		"CODE": "3507020002",
		"NAME": "南平高铁站充电站",
		"STATYPE": null,
		"STATYPENAME": null,
		"VISIBLE": "1",
		"STAOPSTATE": "3",
		"STAOPSTATENAME": "运营中",
		"WGS84LNG": 118.278791,
		"WGS84LAT": 26.593817,
		"STAADDR": "福建省南平市延平区^爱国路高铁站",
		"CDCS": 0
	}, {
		"STAPILLZLCOUNT": 2,
		"STAPILLJLDXCOUNT": 1,
		"ID": "16ea6316-2816-4588-9526-fa751a6990ad",
		"CODE": "3507820014",
		"NAME": "武夷山超音速汽贸充电站",
		"STATYPE": null,
		"STATYPENAME": null,
		"VISIBLE": "1",
		"STAOPSTATE": "3",
		"STAOPSTATENAME": "运营中",
		"WGS84LNG": 118.028940,
		"WGS84LAT": 27.761469,
		"STAADDR": "福建省南平市武夷山市^兴武路95号",
		"CDCS": 0
	}, {
		"STAPILLZLCOUNT": 1,
		"STAPILLJLDXCOUNT": 2,
		"ID": "5cb1b794-53c5-4c39-bab6-caca66c66556",
		"CODE": "3507840008",
		"NAME": "南平建阳兄弟贸易充电站",
		"STATYPE": null,
		"STATYPENAME": null,
		"VISIBLE": "1",
		"STAOPSTATE": "3",
		"STAOPSTATENAME": "运营中",
		"WGS84LNG": 118.130397,
		"WGS84LAT": 27.349933,
		"STAADDR": "福建省南平市建阳市嘉禾北路^嘉禾北路",
		"CDCS": 0
	}, {
		"STAPILLZLCOUNT": 0,
		"STAPILLJLDXCOUNT": 1,
		"ID": "49d9467a-d349-4197-af6b-a594fac32ae2",
		"CODE": "3507240001",
		"NAME": "南平松溪来龙大酒店充电站",
		"STATYPE": null,
		"STATYPENAME": null,
		"VISIBLE": "1",
		"STAOPSTATE": "3",
		"STAOPSTATENAME": "运营中",
		"WGS84LNG": 118.791999,
		"WGS84LAT": 27.539022,
		"STAADDR": "福建省南平市松溪县^龙山路",
		"CDCS": 0
	}, {
		"STAPILLZLCOUNT": 0,
		"STAPILLJLDXCOUNT": 3,
		"ID": "c2a432e8-300b-4943-b479-d13575904d1a",
		"CODE": "3507020018",
		"NAME": "南平华士特汽配充电站",
		"STATYPE": null,
		"STATYPENAME": null,
		"VISIBLE": "1",
		"STAOPSTATE": "3",
		"STAOPSTATENAME": "运营中",
		"WGS84LNG": 118.168448,
		"WGS84LAT": 26.640682,
		"STAADDR": "福建省南平市延平区^环城中路107号",
		"CDCS": 0
	}, {
		"STAPILLZLCOUNT": 16,
		"STAPILLJLDXCOUNT": 0,
		"ID": "e4baff58-b409-4f9a-890d-90881ad9d17d",
		"CODE": "3507020021",
		"NAME": "南平公交东坑充电站",
		"STATYPE": null,
		"STATYPENAME": null,
		"VISIBLE": "1",
		"STAOPSTATE": "3",
		"STAOPSTATENAME": "运营中",
		"WGS84LNG": 118.205445,
		"WGS84LAT": 26.604805,
		"STAADDR": "G316(福兰线)",
		"CDCS": 0
	}, {
		"STAPILLZLCOUNT": 12,
		"STAPILLJLDXCOUNT": 0,
		"ID": "045fd4db-9c97-4018-bc99-a4203916de2a",
		"CODE": "3507810002",
		"NAME": "邵武市通泰开发区公交首末站",
		"STATYPE": null,
		"STATYPENAME": null,
		"VISIBLE": "1",
		"STAOPSTATE": "3",
		"STAOPSTATENAME": "运营中",
		"WGS84LNG": 117.483947,
		"WGS84LAT": 27.337063,
		"STAADDR": "福建省南平市邵武市^延寿路",
		"CDCS": 0
	}, {
		"STAPILLZLCOUNT": 0,
		"STAPILLJLDXCOUNT": 1,
		"ID": "e25fe123-b95d-40d8-bb9a-a3f482288092",
		"CODE": "3507830001",
		"NAME": "建瓯市海天大酒店充电站",
		"STATYPE": null,
		"STATYPENAME": null,
		"VISIBLE": "1",
		"STAOPSTATE": "3",
		"STAOPSTATENAME": "运营中",
		"WGS84LNG": 118.304455,
		"WGS84LAT": 27.029218,
		"STAADDR": "福建省南平市建瓯市^新区67-69号",
		"CDCS": 0
	}, {
		"STAPILLZLCOUNT": 9,
		"STAPILLJLDXCOUNT": 0,
		"ID": "80185e81-56d1-4d89-9d56-04c883d0d51b",
		"CODE": "3507020022",
		"NAME": "南平公交安丰转乘站充电站",
		"STATYPE": null,
		"STATYPENAME": null,
		"VISIBLE": "1",
		"STAOPSTATE": "3",
		"STAOPSTATENAME": "运营中",
		"WGS84LNG": 118.254737,
		"WGS84LAT": 26.590155,
		"STAADDR": "福建省南平市延平区^安丰桥安丰场站",
		"CDCS": 0
	}, {
		"STAPILLZLCOUNT": 0,
		"STAPILLJLDXCOUNT": 1,
		"ID": "b503d916-f37e-4d44-9c40-6876a6b0f915",
		"CODE": "3507240002",
		"NAME": "南平松溪凯震东方铭城充电站",
		"STATYPE": null,
		"STATYPENAME": null,
		"VISIBLE": "1",
		"STAOPSTATE": "3",
		"STAOPSTATENAME": "运营中",
		"WGS84LNG": 118.800429,
		"WGS84LAT": 27.539067,
		"STAADDR": "福建省南平市松溪县^工农东路",
		"CDCS": 0
	}, {
		"STAPILLZLCOUNT": 2,
		"STAPILLJLDXCOUNT": 6,
		"ID": "e5802d13-c1b1-4e4c-92ad-7926793d694b",
		"CODE": "3507020019",
		"NAME": "南平市延寿楼充电站",
		"STATYPE": null,
		"STATYPENAME": null,
		"VISIBLE": "1",
		"STAOPSTATE": "3",
		"STAOPSTATENAME": "运营中",
		"WGS84LNG": 118.185281,
		"WGS84LAT": 26.638629,
		"STAADDR": "福建省南平市延平区^滨江中路6号  延寿楼停车场",
		"CDCS": 0
	}, {
		"STAPILLZLCOUNT": 0,
		"STAPILLJLDXCOUNT": 1,
		"ID": "b82d5ca9-103c-4042-8a09-b5ad21c1a5cb",
		"CODE": "3507820013",
		"NAME": "宝岛会展中心大酒店充电站",
		"STATYPE": null,
		"STATYPENAME": null,
		"VISIBLE": "1",
		"STAOPSTATE": "3",
		"STAOPSTATENAME": "运营中",
		"WGS84LNG": 117.985629,
		"WGS84LAT": 27.654510,
		"STAADDR": "福建省南平市武夷山市^武夷山市度假区玉女峰路8号",
		"CDCS": 0
	}],
	"staListCount": 24
}